debtor_nik,debtor_name,debtor_gender,debtor_birth_place,debtor_age,debtor_education_level,debtor_address,debtor_latitude,debtor_longitude,debtor_zip,debtor_rt,debtor_rw,employment_status,debtor_working_day,debtor_working_time,tenor,best_time_to_bill
4.13343E+15,Cemplunk Zulaika,perempuan,"Bengkulu, 23-09-1997",26,S2,"Jalan Brigadir Jenderal Slamet Riyadi, Kauman, Surakarta, Kecamatan Pasar Kliwon, Jawa Tengah, Jawa, 57133, Indonesia",-7.571109652,110.8258819,12188,6,10,Employed,Senin-Jumat,Siang-Malam,288,Pagi
7.87362E+15,"Clara Padmasari, M.Pd",laki-laki,"Jawa Tengah, 13-04-1964",59,SD,"Simbatan, Lamongan, Jawa Timur, 62211, Indonesia",-7.162565476,112.4354959,56126,20,20,Full-time,Senin-Jumat,Siang-Malam,23,Pagi
9.93737E+15,"Puti Cinthia Oktaviani, S.IP",laki-laki,"Jawa Tengah, 01-09-1981",42,SMA,"Jatiragas, Jawa Barat, Indonesia",-6.352626811,107.5696533,98101,2,15,Full-time,Senin-Jumat,Sore-Malam,341,Pagi
2.07108E+15,"Lalita Astuti, M.TI.",laki-laki,"Aceh, 14-02-1987",36,SMA,"Tengger, Bandungharjo, Jepara, Jawa Tengah, Jawa, 59454, Indonesia",-6.451495007,110.8754468,76993,19,16,Full-time,Senin-Jumat,Pagi-Sore,282,Malam
8.85274E+15,Daliman Kusumo,laki-laki,"Gorontalo, 06-12-1998",25,S1,"Sukamaju, Lebak, Banten, Indonesia",-6.687387662,106.3879308,6297,1,1,Employed,Senin-Jumat,Siang-Sore,79,Pagi
7.35756E+15,Hamima Yuliarti,perempuan,"Sulawesi Tengah, 22-03-1972",51,S1,"Sumedang, Jawa Barat, 45365, Indonesia",-6.893695241,107.8428742,17655,8,9,Part-time,Senin-Jumat,Malam-Pagi,346,Siang
8.05319E+15,Kiandra Hassanah,perempuan,"Sulawesi Tengah, 24-01-1971",52,SMP,"Adipala, Cilacap, Jawa Tengah, Jawa, 53271, Indonesia",-7.720249842,109.127576,60416,2,12,Employed,Senin-Minggu,Pagi-Sore,42,Malam
9.99155E+15,Jayadi Rajata,laki-laki,"Sumatera Utara, 08-12-1970",53,SD,"Garut, Jawa Barat, Indonesia",-7.318462444,107.5197195,178,7,12,Full-time,Senin-Jumat,Pagi-Sore,11,Malam
5.89562E+15,Farhunnisa Prastuti,laki-laki,"Jawa Timur, 10-08-1975",48,S2,"Rejosari, Madiun, Jawa Timur, 63173, Indonesia",-7.733562722,111.4961934,99838,16,7,Employed,Senin-Jumat,Siang-Malam,107,Pagi
9.46337E+15,Janet Haryanti,laki-laki,"Maluku Utara, 19-05-1969",54,SMP,"Jalan Lanud Sukani, Jatisura, Majalengka, Jawa Barat, 45454, Indonesia",-6.698252703,108.256395,59050,15,10,Part-time,Senin-Jumat,Siang-Sore,51,Pagi
6.90341E+15,Humaira Mandala,laki-laki,"Lampung, 08-02-1994",29,S2,"Hutan, Blitar, Jawa Timur, Indonesia",-7.953785852,112.2958479,6619,11,4,Part-time,Senin-Jumat,Pagi-Siang,358,Sore
6.08837E+15,Natalia Padmasari,perempuan,"Banten, 22-09-1974",49,S1,"Kujang, Tasikmalaya, Jawa Barat, Indonesia",-7.732363745,108.1448207,5195,6,16,Part-time,Senin-Jumat,Malam-Pagi,131,Pagi
1.13167E+15,"Dt. Panji Sirait, S.Pd",perempuan,"Jawa Tengah, 09-08-1980",43,S2,"Jawa Barat, Jawa, Indonesia",-7.654648437,106.9364881,2343,6,15,Employed,Senin-Jumat,Pagi-Sore,100,Malam
2.17476E+15,Yance Wastuti,laki-laki,"Sumatera Selatan, 17-08-1979",44,S1,"Jawa Barat, Jawa, Indonesia",-7.929008707,108.2900374,70037,8,18,Employed,Senin-Minggu,Pagi-Sore,21,Malam
7.77888E+15,Kacung Nasyidah,laki-laki,"Bali, 24-09-1978",45,SMA,"Kandangsapi, Sragen, Jawa Tengah, Jawa, Indonesia",-7.331067276,111.1324606,76479,3,3,Full-time,Senin-Jumat,Pagi-Sore,337,Malam
6.25672E+15,Cinta Saefullah,perempuan,"Sulawesi Tengah, 10-09-1987",36,D4,"Bodeh, Pemalang, Jawa Tengah, Jawa, Indonesia",-6.96018358,109.5002668,89737,20,19,Self-Employed,Senin-Jumat,Siang-Sore,101,Pagi
9.33087E+15,"Gasti Gunawan, M.TI.",laki-laki,"Gorontalo, 27-11-1968",55,SMA,"Jawa Barat, Jawa, Indonesia",-7.767127698,107.4544379,3928,4,10,Full-time,Senin-Jumat,Sore-Malam,202,Siang
6.19905E+15,"Puti Keisha Laksmiwati, M.M.",laki-laki,"DI Yogyakarta, 14-03-1964",59,S2,"Sukahurip, Pangandaran, Jawa Barat, 46396, Indonesia",-7.651374931,108.6685108,4570,7,16,Full-time,Sabtu-Minggu,Malam-Pagi,103,Siang
5.91478E+15,R.M. Purwadi Sirait,laki-laki,"Sulawesi Tengah, 10-04-1979",44,SMA,"Jajar, Magetan, Jawa Timur, Indonesia",-7.523624575,111.4814178,94704,5,6,Full-time,Senin-Jumat,Pagi-Malam,52,Sore
6.96449E+15,Rachel Namaga,perempuan,"Jambi, 05-04-1995",28,S2,"Kawalimukti, Ciamis, Jawa Barat, Jawa, Indonesia",-7.172225468,108.3684568,24237,13,9,Full-time,Senin-Jumat,Siang-Sore,306,Pagi
4.54491E+15,Vera Wibowo,perempuan,"Kalimantan Barat, 13-12-1966",57,SMA,"Sirnagalih, Garut, Jawa Barat, Indonesia",-7.276872111,107.8024155,40335,8,14,Employed,Senin-Jumat,Malam-Pagi,245,Pagi
3.1793E+15,Tgk. Malika Maheswara,perempuan,"Jawa Timur, 22-05-1990",33,S1,"Grabag, Purworejo, Jawa Tengah, Jawa, Indonesia",-7.886847671,109.9080505,94584,14,14,Full-time,Senin-Jumat,Siang-Malam,276,Pagi
3.69431E+15,Cakrawala Suwarno,laki-laki,"Jambi, 04-02-1964",59,S2,"Ciseureuh, Brebes, Jawa Tengah, Jawa, Indonesia",-7.104177298,108.8435081,73692,20,13,Full-time,Senin-Jumat,Pagi-Sore,344,Malam
4.40257E+15,Dina Iswahyudi,laki-laki,"Kepulauan Riau, 19-05-1976",47,S2,"Jalan Lintas Jabar Selatan, Jayagiri, Cianjur, Jawa Barat, Jawa, Indonesia",-7.47990335,107.1964665,9462,12,11,Retired,,,292,Siang
6.87841E+15,Hilda Hutapea,laki-laki,"Sumatera Selatan, 27-10-1979",44,S3,"Sidoharjo, Kebumen, Jawa Tengah, Jawa, Indonesia",-7.790895437,109.5588786,17381,3,9,Employed,Senin-Minggu,Pagi-Sore,206,Malam
6.56273E+15,"Cut Nilam Simbolon, S.H.",perempuan,"Jawa Timur, 04-07-1969",54,S2,"Jawa Timur, Jawa, Indonesia",-6.690668148,111.794819,96498,17,20,Self-Employed,Senin-Jumat,Siang-Sore,236,Pagi
9.5106E+15,Galur Tarihoran,perempuan,"DKI Jakarta, 15-06-1988",35,S2,"Trayu, Boyolali, Jawa Tengah, Jawa, 57373, Indonesia",-7.526476347,110.69123,21852,6,2,Employed,Senin-Minggu,Pagi-Malam,260,Sore
8.96763E+15,Eli Namaga,perempuan,"Gorontalo, 06-10-1984",39,SMA,"Cipendawa, Cianjur, Jawa Barat, 43253, Indonesia",-6.762291728,107.0279636,76602,7,11,Self-Employed,Senin-Minggu,Pagi-Sore,185,Malam
4.08951E+15,"Respati Firmansyah, S.H.",perempuan,"Sumatera Utara, 07-10-1999",24,SMA,"Wedoro, Bojonegoro, Jawa Timur, Indonesia",-7.354710633,111.9897213,59829,17,17,Full-time,Senin-Jumat,Pagi-Sore,264,Malam
9.78636E+15,Kartika Wastuti,laki-laki,"Kalimantan Tengah, 29-03-1978",45,SMA,"Padaluyu, Cianjur, Jawa Barat, Indonesia",-7.363492949,107.2288002,5216,1,2,Self-Employed,Senin-Jumat,Siang-Malam,342,Pagi
7.31888E+15,Kani Sinaga,laki-laki,"Nusa Tenggara Timur, 24-01-1983",40,D3,"Jawa Timur, Indonesia",-7.296874539,111.2040514,30516,1,10,Employed,Senin-Minggu,Sore-Malam,319,Siang
5.3719E+15,"Daliono Puspasari, S.T.",laki-laki,"Papua Barat, 28-11-1975",48,S3,"Malang, Purworejo, Jawa Tengah, Jawa, Indonesia",-7.8652405,109.9350111,53172,15,15,Employed,Senin-Minggu,Pagi-Siang,203,Sore
8.26555E+15,Ir. Gaman Gunawan,laki-laki,"Maluku Utara, 12-01-1968",55,S1,"Jawa Tengah, Jawa, Indonesia",-6.424436326,111.6516149,65373,19,12,Full-time,Senin-Jumat,Pagi-Siang,92,Sore
6.45481E+15,Tgk. Amelia Hardiansyah,perempuan,"Banten, 01-01-1963",60,S1,"Bringinwareng, Pati, Jawa Tengah, Jawa, 59114, Indonesia",-6.785202507,111.0790199,18359,5,19,Part-time,Senin-Jumat,Siang-Sore,70,Pagi
9.2529E+15,Kamila Marpaung,laki-laki,"Papua, 17-08-1973",50,S1,"Emplak, Pangandaran, Jawa Barat, Indonesia",-7.696679307,108.7257699,56465,1,19,Full-time,Senin-Jumat,Pagi-Siang,255,Sore
7.51965E+15,Bahuraksa Rahimah,laki-laki,"Bengkulu, 05-02-1964",59,SMP,"Santanamekar, Tasikmalaya, Jawa Barat, Indonesia",-7.251291066,108.0915645,82560,9,13,Full-time,Senin-Jumat,Pagi-Sore,240,Malam
2.4364E+15,"T. Damu Putra, S.Pt",perempuan,"Jawa Tengah, 08-10-1997",26,SMP,"Sukahurip, Garut, Jawa Barat, 44171, Indonesia",-7.322711016,107.8045267,13831,17,8,Full-time,Senin-Jumat,Siang-Sore,323,Pagi
1.57852E+15,"Dt. Bancar Laksita, S.I.Kom",perempuan,"Kalimantan Barat, 18-03-1977",46,D3,"Jawa Tengah, Jawa, Indonesia",-6.311134901,109.266346,90147,16,15,Self-Employed,Senin-Jumat,Pagi-Sore,252,Malam
6.12055E+15,"H. Prabowo Puspita, S.IP",perempuan,"Papua, 30-05-1996",27,S1,"Sedayu, Grobogan, Jawa Tengah, Jawa, Indonesia",-6.978145784,110.9676896,19472,11,1,Part-time,Senin-Jumat,Pagi-Siang,268,Malam
5.98435E+15,Salimah Tarihoran,perempuan,"Sulawesi Barat, 07-06-1991",32,S3,"Jawa Barat, Jawa, Indonesia",-7.642642373,106.6406125,78283,17,8,Self-Employed,Senin-Jumat,Siang-Malam,323,Pagi
6.51278E+15,"Jarwa Suartini, S.T.",laki-laki,"Kalimantan Tengah, 30-06-1989",34,S1,"Tambakmulyo, Kebumen, Jawa Tengah, Jawa, Indonesia",-7.78776284,109.4824656,60077,20,6,Full-time,Senin-Jumat,Pagi-Sore,37,Malam
2.1351E+15,Kenari Uyainah,perempuan,"Sulawesi Tenggara, 22-09-1996",27,SMP,"Wunut, Purworejo, Jawa Tengah, Jawa, 54172, Indonesia",-7.811367225,109.9374672,5689,13,12,Part-time,Senin-Jumat,Malam-Pagi,315,Pagi
8.33522E+15,Zalindra Mustofa,laki-laki,"Nusa Tenggara Barat, 01-06-1994",29,SMA,"Jawa Tengah, Jawa, Indonesia",-6.443800738,110.0561247,8164,15,19,Full-time,Senin-Minggu,Pagi-Siang,296,Sore
4.26814E+15,dr. Jaga Santoso,perempuan,"Kalimantan Selatan, 10-08-1989",34,S2,"Jayapura, Tasikmalaya, Jawa Barat, Jawa, 46471, Indonesia",-7.329756348,108.0011993,27778,4,11,Self-Employed,Senin-Jumat,Pagi-Sore,279,Malam
2.1233E+15,"Lanang Habibi, S.Pd",perempuan,"Sulawesi Tenggara, 21-06-1965",58,SMA,"Jawa Barat, Jawa, Indonesia",-7.855815634,108.1264246,30138,12,10,Employed,Senin-Jumat,Siang-Malam,103,Pagi
7.07892E+15,"Garang Sitompul, S.I.Kom",perempuan,"Jambi, 03-05-1974",49,SMA,"Jawa Barat, Jawa, Indonesia",-7.520949856,106.4631623,40722,8,1,Full-time,Senin-Minggu,Pagi-Sore,134,Malam
5.81659E+15,Tgk. Siska Saputra,perempuan,"Sumatera Selatan, 27-02-1986",37,S1,"Setu, Bogor, Jawa Barat, Indonesia",-6.461212698,106.4929713,20196,11,20,Part-time,Senin-Jumat,Pagi-Siang,92,Sore
4.5093E+15,Among Sihotang,laki-laki,"Papua, 21-03-1962",61,SMP,"Kedungwaras, Lamongan, Jawa Timur, Indonesia",-7.188143768,112.1393714,8669,11,12,Self-Employed,Senin-Jumat,Pagi-Sore,272,Malam
7.21987E+15,"Hartana Suryono, S.Gz",perempuan,"Jambi, 06-09-1967",56,S2,"Sirnaraja, Bandung Barat, Jawa Barat, Indonesia",-6.779643614,107.3978204,95603,14,3,Full-time,Senin-Jumat,Pagi-Sore,162,Malam
1.02562E+15,Kania Haryanti,perempuan,"DI Yogyakarta, 16-04-1992",31,SMA,"Jalan Sarbini, Madureso, Temanggung, Jawa Tengah, Jawa, 56271, Indonesia",-7.332792686,110.1969891,21935,10,10,Full-time,Senin-Jumat,Siang-Sore,249,Pagi
7.9756E+15,"Joko Tampubolon, S.Psi",laki-laki,"Sulawesi Barat, 09-07-1988",35,S2,"Sengon, Ngambon, Bojonegoro, Jawa Timur, Jawa, Indonesia",-7.331985509,111.7183423,92214,11,8,Full-time,Senin-Jumat,Pagi-Siang,131,Sore
6.38518E+15,Tina Suartini,perempuan,"Kalimantan Barat, 30-07-1969",54,D4,"Padabeunghar, Jawa Barat, 45652, Indonesia",-6.800614216,108.4231353,58925,16,6,Part-time,Senin-Minggu,Malam-Pagi,32,Pagi
8.60362E+15,Ir. Ida Wibisono,perempuan,"Kalimantan Tengah, 11-08-1997",26,S2,"Kumbung, Majalengka, Jawa Barat, 45471, Indonesia",-6.790936145,108.339139,53252,17,15,Employed,Senin-Jumat,Pagi-Sore,82,Malam
5.8031E+15,Soleh Mustofa,perempuan,"Aceh, 03-05-1980",43,D4,"Ngablak, Nganjungganjung, Boyolali, Jawa Tengah, Jawa, 57382, Indonesia",-7.317017604,110.6224915,25444,15,13,Employed,Senin-Jumat,Sore-Malam,235,Siang
7.40619E+15,"Yessi Thamrin, S.E.",laki-laki,"Papua Barat, 17-06-1996",27,S1,"Garut, Jawa Barat, 44171, Indonesia",-7.339368208,107.8486284,13288,6,11,Part-time,Senin-Jumat,Siang-Sore,172,Malam
8.31621E+15,Mustofa Palastri,laki-laki,"Kalimantan Utara, 05-03-1970",53,SMA,"Cikiara, Tasikmalaya, Jawa Barat, Indonesia",-7.434155324,108.1082591,54833,11,7,Employed,Senin-Jumat,Pagi-Siang,156,Sore
5.03705E+15,"Hilda Widiastuti, S.Pt",perempuan,"Kepulauan Bangka Belitung, 17-11-1992",31,D3,"Jawa Barat, Jawa, Indonesia",-7.604937856,107.1669016,97413,13,12,Retired,,,226,Siang
7.98482E+15,Ibrahim Firmansyah,laki-laki,"Jawa Timur, 08-06-1994",29,D4,"Naluk, Sumedang, Jawa Barat, 45321, Indonesia",-6.772883469,107.9201007,75263,17,7,Full-time,Senin-Minggu,Siang-Malam,105,Pagi
6.35033E+15,Sabrina Zulaika,perempuan,"Gorontalo, 19-09-1966",57,D3,"Jawa Tengah, Jawa, Indonesia",-6.328505001,111.4571446,91291,6,17,Self-Employed,Senin-Jumat,Pagi-Sore,70,Malam
5.74268E+15,Salimah Lestari,laki-laki,"Sulawesi Tengah, 22-08-1990",33,SMA,"Jawa Barat, Jawa, Indonesia",-7.814356533,107.9257563,87368,13,7,Full-time,Senin-Jumat,Pagi-Sore,17,Malam
5.48985E+15,Salsabila Nababan,perempuan,"Aceh, 22-07-1996",27,S1,"Jalan Raya Kudus - Purwodadi, Sambung, Wandankemiri, Grobogan, Jawa Tengah, Jawa, 58162, Indonesia",-6.95495723,110.7741882,64970,7,13,Employed,Senin-Jumat,Pagi-Sore,270,Malam
3.32743E+15,Yuni Sihombing,laki-laki,"Sumatera Barat, 21-10-1976",47,S1,"KEPUNDUHAN CIPADUNG, Tasikmalaya, Jawa Barat, 46473, Indonesia",-7.505185457,108.1127087,73252,12,18,Employed,Senin-Jumat,Siang-Sore,63,Malam
4.48514E+15,Eka Marbun,perempuan,"Kepulauan Riau, 16-11-1969",54,D3,"Crabak, Ponorogo, Jawa Timur, Indonesia",-7.992550327,111.4338723,41144,10,3,Employed,Senin-Jumat,Pagi-Sore,263,Malam
7.0779E+15,Jagaraga Hardiansyah,perempuan,"Bengkulu, 14-07-1981",42,S1,"Kemangen, Banyumanis, Jepara, Jawa Tengah, Jawa, 59454, Indonesia",-6.436195544,110.9025688,82534,17,17,Self-Employed,Senin-Jumat,Pagi-Siang,161,Sore
8.39354E+15,Danuja Tampubolon,laki-laki,"Sulawesi Selatan, 17-09-1983",40,D3,"Sumberbendo, Madiun, Jawa Timur, 63155, Indonesia",-7.471808,111.7190961,9295,14,10,Self-Employed,Senin-Minggu,Malam-Pagi,211,Siang
2.29742E+15,Zulaikha Wahyudin,laki-laki,"Jawa Tengah, 22-04-1965",58,S1,"Ngiyono, Blora, Jawa Tengah, Jawa, Indonesia",-6.880514957,111.3188247,55404,11,1,Full-time,Senin-Jumat,Malam-Pagi,65,Pagi
3.48664E+15,Kenes Lestari,laki-laki,"Maluku, 03-09-1979",44,S1,"Tasikharjo, Rembang, Jawa Tengah, Jawa, 59214, Indonesia",-6.66622333,111.268016,83545,14,18,Full-time,Senin-Jumat,Sore-Malam,37,Siang
9.79644E+15,Tgk. Lasmanto Maulana,perempuan,"Sumatera Barat, 13-03-1960",63,S1,"Gemarang, Jawa Timur, Jawa, Indonesia",-7.411290683,111.3566785,45959,1,3,Full-time,Senin-Jumat,Pagi-Sore,313,Malam
2.7993E+15,Lintang Mandasari,laki-laki,"Kalimantan Timur, 28-11-1998",25,S1,"Tompe, Demak, Jawa Tengah, Jawa, Indonesia",-6.985931595,110.743869,59893,3,2,Employed,Senin-Jumat,Siang-Malam,211,Pagi
8.14759E+15,Rini Siregar,perempuan,"Jawa Barat, 20-03-1999",24,D4,"Lumbir, Banyumas, Jawa Tengah, Jawa, Indonesia",-7.470473683,108.9540579,18086,3,3,Part-time,Senin-Jumat,Pagi-Siang,196,Malam
2.99781E+15,Yoga Kusmawati,perempuan,"Papua, 23-04-1997",26,SD,"Warureja, Tegal, Jawa Tengah, Jawa, Indonesia",-6.953951626,109.315772,8729,9,18,Employed,Senin-Jumat,Pagi-Sore,28,Malam
5.06456E+15,Najib Lestari,laki-laki,"Jawa Timur, 11-05-2000",23,S2,Address not found,-7.714348593,106.6047974,60072,5,20,Self-Employed,Senin-Jumat,Siang-Malam,97,Pagi
9.97293E+15,Dt. Jamil Tarihoran,laki-laki,"Bengkulu, 24-07-1988",35,SMA,"Sumobito, Jombang, Jawa Timur, Jawa, Indonesia",-7.518458309,112.3430949,96758,4,13,Employed,Senin-Jumat,Pagi-Sore,259,Malam
9.55273E+15,"Daruna Winarno, M.TI.",laki-laki,"Maluku, 18-09-1972",51,S1,"Sidobogem, Lamongan, Jawa Timur, Indonesia",-7.160417051,112.2376741,2074,17,13,Full-time,Senin-Jumat,Siang-Malam,19,Pagi
2.83806E+15,Puti Iriana Pradana,perempuan,"Bali, 27-01-1981",42,S2,"Giripurno, Kebumen, Jawa Tengah, Jawa, 54364, Indonesia",-7.607201443,109.583701,86569,16,20,Employed,Senin-Jumat,Siang-Sore,243,Pagi
7.08811E+15,Drs. Kezia Pratiwi,laki-laki,"Jawa Barat, 10-02-1995",28,SMA,"Sirnagalih, Cianjur, Jawa Barat, Indonesia",-7.407206085,107.1131527,57039,6,15,Full-time,Senin-Jumat,Pagi-Sore,237,Malam
9.85644E+15,Cici Mahendra,perempuan,"Bengkulu, 01-01-1964",59,SMA,"Banten, Jawa, Indonesia",-7.07421945,106.0963057,31485,17,19,Full-time,Senin-Jumat,Pagi-Siang,22,Sore
9.21008E+15,Ulva Dabukke,laki-laki,"Jambi, 05-07-1972",51,SMA,"Jawa Timur, Jawa, Indonesia",-6.738166983,112.0724356,44850,14,15,Employed,Senin-Minggu,Pagi-Sore,37,Malam
6.41372E+15,Satya Mulyani,perempuan,"Sulawesi Selatan, 30-04-1974",49,SMP,Address not found,-7.98048624,106.470249,57012,4,11,Full-time,Senin-Minggu,Siang-Malam,290,Pagi
3.3086E+15,"Darijan Santoso, M.TI.",laki-laki,"Jawa Barat, 28-02-1984",39,S2,"RW 05, Ciganjur, Jagakarsa, Jakarta Selatan, Daerah Khusus Ibukota Jakarta, 16431, Indonesia",-6.341201728,106.8053559,73824,18,3,Full-time,Senin-Jumat,Pagi-Sore,308,Malam
3.5695E+15,Umi Mustofa,perempuan,"Maluku, 25-02-1993",30,S1,"Jalan Raya Margasari - Bumiayu, Pakulaut, Tegal, Jawa Tengah, Jawa, 52463, Indonesia",-7.09240021,109.024826,42149,20,16,Self-Employed,Senin-Jumat,Pagi-Sore,256,Malam
5.30158E+15,Sutan Bagus Kusumo,perempuan,"Kalimantan Utara, 17-12-1979",44,S1,"Jawa Tengah, Jawa, Indonesia",-6.738620628,110.0148007,26938,5,13,Employed,Senin-Jumat,Siang-Malam,58,Pagi
8.18895E+15,Ayu Waskita,perempuan,"Kalimantan Timur, 17-08-1962",61,S1,"Sukajaya, Bogor, Jawa Barat, Indonesia",-6.597116006,106.4709376,63719,4,1,Self-Employed,Senin-Jumat,Pagi-Malam,336,Sore
5.01457E+15,R. Adikara Hastuti,laki-laki,"Jawa Timur, 30-11-1967",56,SMA,"Jawa Barat, Jawa, Indonesia",-7.521744204,106.9511795,74381,5,20,Part-time,Senin-Jumat,Malam-Pagi,319,Sore
4.38507E+15,Fitriani Andriani,laki-laki,"DKI Jakarta, 06-12-1985",38,SD,"Citeras, Garut, Jawa Barat, Indonesia",-7.051252195,108.0636668,67771,20,1,Employed,Senin-Jumat,Sore-Malam,26,Siang
7.47642E+15,Eka Puspita,laki-laki,"Nusa Tenggara Barat, 19-10-1993",30,S1,Address not found,-7.761738895,106.9862271,40202,18,2,Part-time,Senin-Jumat,Pagi-Siang,113,Sore
3.02541E+15,Citra Mulyani,perempuan,"Banten, 17-10-1968",55,S2,"Sukabumi, Jawa Barat, Indonesia",-6.809180038,106.6129685,70995,2,13,Employed,Senin-Minggu,Malam-Pagi,263,Siang
9.29997E+15,dr. Candra Zulkarnain,laki-laki,"Papua Barat, 11-01-1995",28,S2,"7, Lebak, Banten, Jawa, Indonesia",-6.825271847,105.9005789,16297,7,4,Part-time,Senin-Minggu,Siang-Sore,334,Pagi
3.7246E+15,"Nadine Hakim, M.M.",laki-laki,"DI Yogyakarta, 21-05-1968",55,S1,"Wedi, Bojonegoro, Jawa Timur, 62181, Indonesia",-7.195471788,111.8931843,25779,4,4,Self-Employed,Senin-Minggu,Siang-Sore,274,Pagi
9.73721E+15,Nyana Farida,perempuan,"Kepulauan Bangka Belitung, 31-01-1998",25,SMA,"Garut, Jawa Barat, Indonesia",-7.540675475,107.7298175,53420,14,15,Full-time,Senin-Jumat,Pagi-Sore,358,Malam
4.54257E+15,"Hj. Hani Prasasta, S.Farm",laki-laki,"Kalimantan Selatan, 15-01-1982",41,SMA,"Durenan, Madiun, Jawa Timur, Jawa, Indonesia",-7.697747571,111.7339539,65017,17,5,Self-Employed,Senin-Jumat,Pagi-Sore,279,Malam
2.33333E+15,Siska Agustina,perempuan,"Kalimantan Timur, 22-02-1972",51,S1,"Mendenrejo, Blora, Jawa Tengah, Jawa, Indonesia",-7.247084316,111.4258637,62373,7,16,Full-time,Senin-Minggu,Pagi-Sore,212,Malam
3.53319E+15,Cinthia Ramadan,laki-laki,"Kalimantan Utara, 23-08-1975",48,S2,"Jawa Barat, Jawa, Indonesia",-7.568794905,106.3358908,28172,7,16,Employed,Senin-Jumat,Pagi-Malam,4,Siang
7.44901E+15,Ilsa Simbolon,laki-laki,"Kalimantan Tengah, 23-11-1993",30,SMA,"Cilacap, Jawa Tengah, 53266, Indonesia",-7.248513869,108.6022169,72904,16,5,Full-time,Senin-Jumat,Pagi-Sore,80,Malam
8.04157E+15,Amelia Winarno,laki-laki,"Sumatera Barat, 27-12-1986",37,D4,"Mekarsari, Bandung Barat, Jawa Barat, Indonesia",-6.955266936,107.3732655,52559,4,14,Employed,Senin-Jumat,Pagi-Malam,6,Sore
2.56872E+15,Farah Melani,laki-laki,"Sulawesi Tenggara, 17-08-1994",29,SD,"Jawa Tengah, Jawa, Indonesia",-6.45222472,109.6762834,83490,13,15,Part-time,Senin-Minggu,Sore-Malam,272,Pagi
5.52269E+15,"R. Ida Narpati, M.Kom.",perempuan,"Banten, 10-12-1967",56,S3,"Jawa Barat, Jawa, Indonesia",-7.772369842,107.3828243,7060,17,17,Self-Employed,Senin-Jumat,Sore-Malam,10,Siang
6.63465E+15,Harimurti Napitupulu,perempuan,"Gorontalo, 20-08-1999",24,SMA,"Kawungsari, Tasikmalaya, Jawa Barat, Indonesia",-7.382505135,107.9295818,65697,19,17,Self-Employed,Senin-Jumat,Sore-Malam,190,Pagi
5.18126E+15,"R.A. Salsabila Widiastuti, S.Pd",perempuan,"DI Yogyakarta, 23-11-1974",49,SMA,"Geger, Tulungagung, Jawa Timur, Indonesia",-7.863686961,111.8118625,44438,11,2,Employed,Senin-Jumat,Pagi-Malam,74,Sore
9.77271E+15,"Tgk. Bala Mulyani, S.Sos",perempuan,"Kepulauan Riau, 06-12-1967",56,S3,"Godong, Grobogan, Jawa Tengah, Jawa, 58162, Indonesia",-7.020243605,110.7734184,13340,10,19,Employed,Senin-Jumat,Siang-Sore,173,Pagi
3.64082E+15,Fitria Budiyanto,perempuan,"Maluku Utara, 17-01-1976",47,S1,"Jawa Tengah, Jawa, Indonesia",-6.609139943,109.0281225,76565,17,8,Self-Employed,Senin-Jumat,Sore-Malam,275,Pagi
4.11819E+15,Kayla Simanjuntak,laki-laki,"DKI Jakarta, 29-03-1968",55,S2,"Girimukti, Cianjur, Jawa Barat, Indonesia",-7.212505444,107.2228595,56312,19,11,Employed,Senin-Jumat,Siang-Sore,335,Pagi
2.39757E+15,"Dr. Aurora Sinaga, S.Pt",laki-laki,"Sulawesi Barat, 14-07-1965",58,D3,"Desa Londer, Londer, Ngesrepbalong, Kendal, Jawa Tengah, Jawa, 51381, Indonesia",-7.142941622,110.3011872,59159,14,3,Self-Employed,Senin-Jumat,Pagi-Sore,286,Malam
4.8023E+15,"Rini Wibisono, S.Sos",perempuan,"DI Yogyakarta, 22-01-1968",55,S1,"Kutajaya, Sukabumi, Jawa Barat, 16110, Indonesia",-6.770008845,106.7945915,35118,20,4,Employed,Senin-Jumat,Pagi-Siang,128,Sore
4.2556E+15,"Diah Haryanto, M.TI.",laki-laki,"Riau, 13-11-1992",31,D4,"Pangandaran, Jawa Barat, Indonesia",-7.663807808,108.461251,25389,5,6,Full-time,Senin-Jumat,Pagi-Sore,311,Malam
6.18489E+15,"dr. Usyi Dabukke, S.E.I",laki-laki,"Nusa Tenggara Timur, 07-08-1999",24,SD,"Jawa Barat, Jawa, Indonesia",-6.476997729,108.8287162,60747,2,14,Employed,Senin-Jumat,Pagi-Sore,148,Malam
6.21946E+15,"Gantar Siregar, S.Kom",laki-laki,"Sulawesi Tengah, 02-07-1987",36,SMA,"Santen Kidul, Tukang, Semarang, Jawa Tengah, Jawa, Indonesia",-7.298585595,110.5736443,94841,14,12,Employed,Senin-Jumat,Malam-Pagi,4,Sore
6.10461E+15,Garan Thamrin,laki-laki,"Kalimantan Selatan, 07-06-1973",50,SMP,"Jawa Tengah, Jawa, Indonesia",-6.400459383,111.3216453,89325,19,7,Employed,Senin-Jumat,Siang-Sore,12,Pagi
8.75034E+15,dr. Cinthia Maheswara,laki-laki,"Sumatera Selatan, 29-11-1974",49,S1,"Gununglarang, Majalengka, Jawa Barat, Indonesia",-6.936416475,108.2306577,14887,7,12,Full-time,Senin-Jumat,Siang-Malam,338,Pagi
2.69337E+15,Winda Suwarno,laki-laki,"Sumatera Barat, 22-07-1993",30,D3,"Banguntapan, Kwadungan Jurang, Temanggung, Jawa Tengah, Jawa, 56264, Indonesia",-7.314172681,110.0597238,95284,17,7,Full-time,Senin-Minggu,Pagi-Sore,125,Malam
9.38979E+15,Respati Lailasari,laki-laki,"Lampung, 31-03-1968",55,S1,"Ciparay, Lebak, Banten, Indonesia",-6.713653325,106.37405,60924,10,1,Employed,Senin-Jumat,Pagi-Siang,93,Sore
1.72867E+15,Ayu Halimah,perempuan,"Maluku, 14-10-1992",31,SMP,"Jawa Tengah, Jawa, Indonesia",-6.456372396,110.4620887,82178,2,18,Self-Employed,Senin-Jumat,Pagi-Sore,113,Malam
8.03693E+15,"Puti Yulia Firmansyah, S.IP",laki-laki,"Kalimantan Selatan, 06-06-1972",51,SMP,"Jono, Bojonegoro, Jawa Timur, 62171, Indonesia",-7.299379152,111.8947248,56454,13,13,Full-time,Senin-Minggu,Siang-Sore,198,Pagi
2.95338E+15,R. Hilda Rajasa,laki-laki,"Maluku Utara, 04-11-1976",47,D4,"Cilograng, Lebak, Banten, Indonesia",-6.99394164,106.3695399,89890,10,14,Full-time,Senin-Jumat,Pagi-Sore,152,Malam
5.54361E+15,"Drs. Teguh Nugroho, S.H.",perempuan,"Nusa Tenggara Barat, 21-01-1960",63,S2,"Banten, Jawa, Indonesia",-6.935981006,105.9394881,58048,20,6,Employed,Senin-Jumat,Sore-Malam,11,Pagi
6.98669E+15,"Hj. Kayla Yulianti, S.Pd",perempuan,"Kepulauan Bangka Belitung, 20-03-1999",24,SMA,"Neglasari, Banjar, Jawa Barat, 46311, Indonesia",-7.393455401,108.5037629,78127,17,8,Employed,Senin-Jumat,Pagi-Sore,149,Malam
9.91631E+15,Cager Tamba,perempuan,"Sulawesi Selatan, 18-12-1964",59,SMP,"Jawa Barat, Jawa, Indonesia",-7.199753261,106.3433122,53113,5,4,Self-Employed,Senin-Jumat,Siang-Malam,140,Pagi
3.04747E+15,Maria Natsir,perempuan,"Jawa Tengah, 04-06-1978",45,SMA,"Jawa Timur, Jawa, Indonesia",-6.41022463,112.2899067,10147,12,14,Employed,Senin-Jumat,Siang-Malam,5,Pagi
2.69163E+15,Purwanto Mangunsong,laki-laki,"Riau, 08-06-1990",33,SMA,"Krikilan, Klaten, Jawa Tengah, Jawa, Indonesia",-7.779144766,110.6387501,72086,5,9,Full-time,Senin-Jumat,Pagi-Siang,65,Malam
1.74334E+15,"Lamar Budiyanto, S.T.",laki-laki,"Jawa Tengah, 16-09-1991",32,SD,"Tanjungrejo, Ponorogo, Jawa Timur, Jawa, Indonesia",-7.910037605,111.3464039,26255,5,2,Part-time,Senin-Jumat,Sore-Malam,317,Siang
1.69797E+15,T. Satya Latupono,perempuan,"Sulawesi Utara, 12-04-1974",49,SMA,"Jawa Tengah, Jawa, Indonesia",-6.488095529,111.3160978,99793,9,12,Employed,Senin-Jumat,Malam-Pagi,59,Siang
6.63753E+15,Ami Maryati,laki-laki,"Banten, 10-04-1978",45,S1,"Ciomas, Bogor, Jawa Barat, Indonesia",-6.429719614,106.5152683,31034,6,15,Full-time,Senin-Jumat,Siang-Malam,11,Pagi
2.75452E+15,Aurora Lazuardi,laki-laki,"Kalimantan Selatan, 31-05-1992",31,D4,"Rancamulya, Jawa Barat, 41263, Indonesia",-6.418713343,107.6641941,31139,16,5,Self-Employed,Senin-Jumat,Pagi-Siang,14,Sore
2.4102E+15,Dewi Rahayu,laki-laki,"Sulawesi Tengah, 22-02-1986",37,S3,"Banaran, Sragen, Jawa Tengah, Jawa, 57254, Indonesia",-7.359049325,111.1237996,36653,11,19,Part-time,Senin-Jumat,Siang-Sore,180,Pagi
6.38181E+15,Zelaya Prasetyo,laki-laki,"Nusa Tenggara Timur, 20-06-1969",54,S1,"Pakuncen, Purbalingga, Jawa Tengah, Jawa, 53353, Indonesia",-7.295945045,109.3684552,12033,11,9,Full-time,Senin-Jumat,Siang-Sore,75,Pagi
5.8059E+15,"Dr. Silvia Hutasoit, S.Gz",perempuan,"DI Yogyakarta, 15-04-1982",41,S1,"Kabandungan, Sukabumi, Jawa Barat, Indonesia",-6.806070431,106.6296539,62741,7,5,Employed,Senin-Minggu,Siang-Sore,215,Malam
7.99738E+15,"Virman Habibi, S.I.Kom",perempuan,"Sumatera Utara, 27-01-1992",31,S1,"Sokoboyo, Wonogiri, Jawa Tengah, Jawa, 57694, Indonesia",-7.788628831,111.1889321,82591,7,10,Self-Employed,Senin-Jumat,Pagi-Malam,11,Sore
8.22875E+15,H. Ibrani Haryanto,perempuan,"Riau, 22-01-1989",34,SMA,"Gang Haji Iin, Wibawamulya, Kabupaten Bekasi, Jawa Barat, Indonesia",-6.425151851,107.1380869,17867,14,15,Employed,Senin-Jumat,Sore-Malam,309,Pagi
7.6017E+15,"Makuta Zulkarnain, S.Gz",laki-laki,"Kepulauan Riau, 05-07-1995",28,D3,"Jemasih, Brebes, Jawa Tengah, Jawa, Indonesia",-7.118913964,108.9005912,54615,7,20,Self-Employed,Senin-Jumat,Siang-Malam,300,Pagi
8.89624E+15,"Ira Nurdiyanti, S.Ked",perempuan,"Sulawesi Utara, 05-02-1960",63,SMP,"Jalan Senopati, Dukuhwaluh, Purwokerto, Banyumas, Jawa Tengah, Jawa, 53113, Indonesia",-7.417554042,109.2627906,62871,20,13,Employed,Senin-Jumat,Sore-Malam,303,Pagi
6.80899E+15,"R. Gangsa Sihotang, M.Farm",perempuan,"Kalimantan Selatan, 31-03-1989",34,SMA,"Bandengan, Panggung, Jepara, Jawa Tengah, Jawa, 59554, Indonesia",-6.671359305,110.624365,21858,16,1,Full-time,Senin-Jumat,Siang-Malam,104,Pagi
4.31576E+15,Lalita Dabukke,perempuan,"Sulawesi Utara, 10-08-1976",47,SMA,"Mekarjaya, Sukabumi, Jawa Barat, Indonesia",-7.29863417,106.8532867,33352,14,1,Employed,Senin-Jumat,Pagi-Sore,117,Malam
6.72601E+15,"Galiono Narpati, S.E.I",perempuan,"Papua Barat, 31-07-1974",49,SMP,"Pupus, Ponorogo, Jawa Timur, Indonesia",-7.781962469,111.6582058,87780,8,6,Full-time,Senin-Jumat,Siang-Sore,162,Pagi
9.41315E+15,Melinda Winarno,perempuan,"Lampung, 22-05-1960",63,S2,"Tanjungjaya, Ciamis, Jawa Barat, 45586, Indonesia",-7.170048271,108.4557588,66870,19,10,Employed,Senin-Minggu,Pagi-Sore,357,Malam
1.20416E+15,Dr. Agnes Wijaya,perempuan,"Nusa Tenggara Barat, 12-06-1995",28,SMA,"Taringgul Tengah, Jawa Barat, Indonesia",-6.579320609,107.5324888,64765,19,9,Self-Employed,Senin-Minggu,Siang-Sore,327,Pagi
1.54475E+15,Cindy Lestari,laki-laki,"Kepulauan Bangka Belitung, 16-05-1991",32,SMA,"Jawa Timur, Jawa, Indonesia",-6.570508464,112.2707579,50765,12,7,Self-Employed,Senin-Jumat,Siang-Malam,133,Pagi
9.7066E+15,Jayeng Pranowo,laki-laki,"Sumatera Utara, 04-02-2000",23,S1,"Jawa Tengah, Jawa, Indonesia",-6.657213341,109.4934575,34931,19,14,Self-Employed,Senin-Jumat,Pagi-Sore,168,Malam
1.19413E+15,"Victoria Siregar, S.Psi",perempuan,"Kalimantan Utara, 19-04-1969",54,SD,"Labuhan, Lamongan, Jawa Timur, Indonesia",-6.873343534,112.2016081,53413,2,3,Employed,Senin-Jumat,Pagi-Siang,207,Malam
3.12852E+15,Raihan Pudjiastuti,perempuan,"Sulawesi Barat, 12-02-1993",30,SMA,"Jalan Tol Pejagan-Pemalang, Kreman, Tegal, Jawa Tengah, Jawa, Indonesia",-6.941369652,109.3113684,14474,13,3,Self-Employed,Senin-Jumat,Pagi-Malam,110,Siang
5.68794E+15,Jarwa Yuniar,laki-laki,"Gorontalo, 16-06-1977",46,SMA,"Jawa Tengah, Jawa, Indonesia",-7.89386801,108.8633048,51262,20,10,Full-time,Senin-Minggu,Pagi-Malam,222,Sore
9.91373E+15,Kuncara Saputra,laki-laki,"Sulawesi Tengah, 27-08-1977",46,SMA,"Danasari, Pemalang, Jawa Tengah, Jawa, 52312, Indonesia",-6.83777519,109.3953944,32640,8,7,Employed,Senin-Jumat,Pagi-Siang,222,Malam
6.65439E+15,"Hj. Titin Halimah, M.Farm",perempuan,"Maluku Utara, 08-05-1992",31,SMA,"Banten, Jawa, Indonesia",-6.963360071,106.0755044,71653,6,18,Full-time,Senin-Jumat,Siang-Sore,238,Malam
9.78201E+15,"Bahuraksa Uwais, S.E.I",laki-laki,"Bali, 15-02-1972",51,SMA,Address not found,-7.992776149,109.0742899,52278,18,19,Self-Employed,Senin-Jumat,Pagi-Malam,23,Sore
6.76134E+15,Rahmi Anggraini,laki-laki,"Sulawesi Selatan, 07-12-1998",25,SD,"Jawa Barat, Jawa, Indonesia",-7.814020502,107.4569608,50475,6,2,Full-time,Senin-Jumat,Sore-Malam,48,Siang
5.49506E+15,drg. Vanesa Rahimah,perempuan,"Jawa Timur, 12-09-1973",50,S1,"Cimanggung, Sumedang, Jawa Barat, 45364, Indonesia",-6.961488891,107.8470779,90211,1,4,Self-Employed,Senin-Jumat,Sore-Malam,56,Pagi
2.28963E+15,"Hj. Ellis Winarno, S.Gz",perempuan,"Kepulauan Riau, 24-01-1986",37,SD,"Banten, Jawa, Indonesia",-7.063011736,106.2490436,98175,9,2,Self-Employed,Senin-Jumat,Pagi-Sore,323,Malam
3.43049E+15,"Baktiono Pudjiastuti, S.Pd",perempuan,"Jawa Timur, 17-02-1972",51,SMA,"Gatak, Pandanretno, Magelang, Jawa Tengah, Jawa, 56413, Indonesia",-7.570189261,110.3300543,31213,17,14,Full-time,Senin-Jumat,Pagi-Malam,171,Sore
5.83921E+15,Jais Manullang,laki-laki,"Sumatera Barat, 04-01-1998",25,S2,"Mundu, Papasan, Jepara, Jawa Tengah, Jawa, 59453, Indonesia",-6.539324222,110.8024614,71244,13,11,Full-time,Senin-Jumat,Pagi-Sore,198,Malam
4.35614E+15,Zulfa Mangunsong,perempuan,"DI Yogyakarta, 19-02-1982",41,SD,"Kebon Gede, Pemalang, Jawa Tengah, Jawa, Indonesia",-7.01575488,109.4005527,36128,17,14,Full-time,Senin-Jumat,Pagi-Sore,133,Malam
8.59755E+15,"Keisha Saefullah, S.Kom",laki-laki,"Lampung, 07-06-1961",62,S1,"Jawa Tengah, Jawa, Indonesia",-6.432891283,109.2627977,12200,17,6,Part-time,Senin-Jumat,Malam-Pagi,31,Siang
5.92868E+15,Ulya Saptono,perempuan,"Jawa Timur, 05-02-1987",36,D4,"Jawa Tengah, Jawa, Indonesia",-6.612564748,109.5385829,91511,19,8,Employed,Senin-Jumat,Sore-Malam,122,Pagi
6.67265E+15,"Tantri Dongoran, M.Kom.",perempuan,"DKI Jakarta, 21-07-1965",58,S1,"Sirnasari, Sumedang, Jawa Barat, Indonesia",-6.943747795,108.1159413,45280,18,7,Part-time,Senin-Jumat,Siang-Sore,238,Malam
2.4143E+15,Ani Novitasari,laki-laki,"Bali, 03-09-1962",61,SMA,"Ledok, Blora, Jawa Tengah, Jawa, Indonesia",-6.885474133,111.2418997,48144,4,19,Self-Employed,Senin-Jumat,Pagi-Sore,309,Malam
1.5626E+15,Parman Prasetyo,laki-laki,"Jambi, 27-12-1981",42,S2,Address not found,-7.89786239,105.9209727,23094,20,1,Part-time,Senin-Jumat,Sore-Malam,305,Pagi
9.20605E+15,Ana Rajata,laki-laki,"Bengkulu, 24-10-1968",55,S2,"Dusun Hambaro, Jawa Barat, Indonesia",-6.36481351,107.7277446,57435,10,1,Self-Employed,Senin-Jumat,Malam-Pagi,355,Sore
4.58464E+15,"Jono Pradana, S.Ked",perempuan,"Papua, 17-08-1972",51,SD,"Banjarsari, Jombang, Jawa Timur, Jawa, 61461, Indonesia",-7.557170287,112.1573894,3413,18,8,Self-Employed,Senin-Jumat,Malam-Pagi,63,Pagi
9.46077E+15,Olivia Wahyudin,laki-laki,"Banten, 24-05-1980",43,S1,"Padawaras, Tasikmalaya, Jawa Barat, Indonesia",-7.697752528,108.0504581,12322,17,3,Self-Employed,Senin-Jumat,Pagi-Malam,355,Siang
8.71004E+15,"KH. Damu Pranowo, S.Gz",laki-laki,"Sulawesi Tengah, 10-03-1966",57,SMA,"Situ Ilir, Pamijahan, Bogor, Jawa Barat, Jawa, 16630, Indonesia",-6.634363698,106.6612989,50509,7,16,Employed,Sabtu-Minggu,Pagi-Malam,193,Sore
3.49562E+15,"Kunthara Yuliarti, M.Pd",perempuan,"Sumatera Barat, 24-08-1975",48,S2,"Jawa Barat, Jawa, Indonesia",-7.616745736,106.9901917,24132,12,19,Employed,Senin-Minggu,Pagi-Malam,22,Sore
9.01734E+15,Dipa Marpaung,perempuan,"Maluku, 09-11-1981",42,SMA,"Grawan, Rembang, Jawa Tengah, Jawa, Indonesia",-6.800127851,111.2858645,73564,7,1,Self-Employed,Senin-Jumat,Pagi-Siang,298,Sore
8.75195E+15,Kezia Habibi,laki-laki,"Lampung, 25-03-1980",43,S2,Address not found,-7.845004539,107.296772,68842,7,6,Employed,Senin-Jumat,Malam-Pagi,61,Siang
3.0271E+15,Wadi Pertiwi,perempuan,"Gorontalo, 08-08-2000",23,SMA,"Jawa Barat, Jawa, Indonesia",-7.875803899,108.4813719,65091,8,1,Full-time,Senin-Jumat,Pagi-Sore,228,Malam
9.27299E+15,Silvia Permata,laki-laki,"Kepulauan Bangka Belitung, 01-08-1981",42,SMA,"Neglasari, Sukabumi, Jawa Barat, Indonesia",-6.904323951,106.7378194,92247,16,14,Part-time,Senin-Jumat,Sore-Malam,104,Siang
1.2535E+15,Daniswara Maryati,perempuan,"Lampung, 20-07-1976",47,SMA,"Boyolali, Jawa Tengah, Jawa, 57312, Indonesia",-7.521142047,110.6092124,57102,2,7,Full-time,Senin-Jumat,Siang-Sore,12,Pagi
3.30963E+15,"Jagapati Usamah, S.H.",perempuan,"Aceh, 07-09-1980",43,S1,"Sukosari, Lamongan, Jawa Timur, Indonesia",-7.273328879,112.350242,90184,5,4,Employed,Senin-Minggu,Pagi-Sore,214,Malam
2.94152E+15,Nadine Narpati,laki-laki,"Jawa Timur, 28-10-1982",41,SMA,"Mertajaya, Tasikmalaya, Jawa Barat, 46473, Indonesia",-7.54643589,108.1070287,87421,14,4,Self-Employed,Senin-Jumat,Pagi-Sore,307,Malam
8.39835E+15,Indra Hidayat,laki-laki,"Riau, 30-10-1966",57,SMA,"Magetan, Jawa Timur, 63313, Indonesia",-7.642541755,111.3188725,72433,11,17,Self-Employed,Senin-Jumat,Siang-Malam,310,Pagi
9.37664E+15,Laila Damanik,perempuan,"Jambi, 12-12-1964",59,SMA,"Kedungbunder, Kedungjati, Grobogan, Jawa Tengah, Jawa, Indonesia",-7.155519671,110.6216347,46321,14,20,Full-time,Senin-Jumat,Sore-Malam,55,Siang
6.36045E+15,Belinda Mayasari,laki-laki,"Sulawesi Utara, 08-06-1975",48,SMA,"Pener, Tegal, Jawa Tengah, Jawa, 52419, Indonesia",-7.018181227,109.1520726,42692,13,3,Full-time,Senin-Jumat,Pagi-Malam,161,Sore
4.19909E+15,"R.M. Tomi Widiastuti, M.Kom.",perempuan,"Lampung, 12-04-1976",47,S1,"Gandamekar, Garut, Jawa Barat, 44152, Indonesia",-7.057155579,107.8734492,79556,17,18,Employed,Senin-Jumat,Siang-Sore,348,Pagi
5.22789E+15,"Emong Tarihoran, S.Kom",laki-laki,"Nusa Tenggara Barat, 06-12-1994",29,S1,"Tegalbuleud, Sukabumi, Jawa Barat, Jawa, Indonesia",-7.420226932,106.7747672,41087,12,20,Employed,Senin-Minggu,Pagi-Sore,45,Malam
2.36462E+15,Sari Santoso,laki-laki,"Lampung, 06-11-1961",62,S1,"Kutosari, Pekalongan, Jawa Tengah, Jawa, 51181, Indonesia",-7.015735004,109.6463785,29094,19,17,Full-time,Senin-Jumat,Malam-Pagi,298,Siang
1.94004E+15,Laksana Anggriawan,perempuan,"Sumatera Selatan, 07-08-1983",40,SMA,"Sendangsari, Pajangan, Bantul, Daerah Istimewa Yogyakarta, Jawa, 55184, Indonesia",-7.855765934,110.2997563,13706,16,16,Full-time,Senin-Jumat,Pagi-Sore,281,Malam
7.8216E+15,Kusuma Sihombing,laki-laki,"Sulawesi Barat, 19-12-1995",28,SMA,"Glandang, Kedungsuren, Kendal, Jawa Tengah, Jawa, 51371, Indonesia",-7.003450361,110.2367658,55738,3,7,Employed,Senin-Jumat,Pagi-Sore,355,Malam
1.35043E+15,Hardana Hidayat,perempuan,"Sulawesi Utara, 12-04-1974",49,S1,"Babadan, Jawa Timur, Indonesia",-7.513591653,111.557056,95788,5,5,Employed,Senin-Jumat,Siang-Sore,116,Malam
6.26569E+15,"Dr. Daru Wahyudin, S.E.I",laki-laki,"Maluku, 13-02-1975",48,SMA,"Jalan Magelang, Semen, Sucen, Magelang, Jawa Tengah, Jawa, 56483, Indonesia",-7.633399305,110.3193129,45649,6,10,Part-time,Senin-Jumat,Siang-Sore,176,Pagi
7.34529E+15,"Ana Gunarto, S.Gz",laki-laki,"Kepulauan Riau, 10-04-1973",50,S1,"Kertamukti, Sumedang, Jawa Barat, Indonesia",-6.739492836,107.8699948,5098,4,4,Self-Employed,Senin-Minggu,Sore-Malam,263,Siang
3.94578E+15,"H. Yoga Gunawan, S.Kom",perempuan,"Banten, 27-07-1993",30,D4,"Kradenanrejo, Lamongan, Jawa Timur, Indonesia",-7.137337754,112.1873682,66971,6,4,Employed,Senin-Minggu,Siang-Malam,195,Pagi
5.61485E+15,"Puti Sakura Pudjiastuti, S.T.",laki-laki,"Maluku Utara, 12-10-1978",45,D4,"Mranak, Penawangan, Semarang, Jawa Tengah, Jawa, 50553, Indonesia",-7.153031556,110.4977602,57187,18,1,Employed,Senin-Jumat,Malam-Pagi,42,Pagi
5.15428E+15,Hendra Safitri,perempuan,"Sumatera Selatan, 28-05-1968",55,S1,"Sukolilo, Pati, Jawa Tengah, Jawa, Indonesia",-6.946003871,110.9300269,93727,2,3,Self-Employed,Senin-Jumat,Pagi-Sore,355,Malam
9.26044E+15,Tgk. Cinta Hutapea,laki-laki,"Maluku, 08-11-1969",54,SMA,"Wonosalam, Jatirejo, Jombang, Jawa Timur, Jawa, Indonesia",-7.677882155,112.3937164,94692,1,5,Full-time,Senin-Jumat,Pagi-Sore,10,Malam
5.94725E+15,Bahuraksa Uyainah,perempuan,"DKI Jakarta, 16-08-1965",58,SMA,"Montong, Tuban, Jawa Timur, 62372, Indonesia",-7.021278456,111.9159878,8041,2,1,Self-Employed,Senin-Jumat,Pagi-Sore,30,Malam
8.3889E+15,Jelita Purwanti,perempuan,"Papua, 30-06-1960",63,SD,"Cipeundeuy, Sumedang, Jawa Barat, Indonesia",-6.936596654,108.1828712,93903,6,4,Self-Employed,Senin-Jumat,Pagi-Malam,201,Sore
4.31346E+15,Yono Kuswoyo,laki-laki,"Sumatera Utara, 28-04-1996",27,SMA,"Pulongrambe, Grobogan, Jawa Tengah, Jawa, 58111, Indonesia",-7.089548263,110.9675891,51371,1,18,Full-time,Senin-Jumat,Sore-Malam,217,Pagi
2.63521E+15,Lalita Suryono,laki-laki,"Kalimantan Selatan, 13-01-2000",23,S3,"Jawa Tengah, Jawa, Indonesia",-6.66229748,110.1060216,58617,6,11,Employed,Senin-Minggu,Pagi-Sore,251,Malam
1.71148E+15,Ridwan Suwarno,laki-laki,"Sumatera Barat, 12-04-1965",58,S2,"Jatiwangi, Jawa Barat, Indonesia",-6.306149014,107.5556542,15173,1,12,Employed,Senin-Jumat,Pagi-Sore,27,Malam
8.22649E+15,Yani Wasita,laki-laki,"Sulawesi Barat, 18-01-1990",33,S2,"Mekarsari, Sukabumi, Jawa Barat, Indonesia",-6.810943748,106.7774296,39049,19,19,Employed,Senin-Jumat,Siang-Malam,136,Pagi
4.45899E+15,Cawisadi Maheswara,laki-laki,"Jawa Barat, 19-06-1968",55,SMP,"Jawa Timur, Jawa, Indonesia",-6.677341849,112.480804,38676,14,6,Employed,Senin-Jumat,Pagi-Sore,67,Malam
2.57116E+15,"Enteng Budiman, S.Psi",perempuan,"Riau, 02-05-1968",55,S3,"Sampung, Ponorogo, Jawa Timur, Indonesia",-7.816642666,111.3556962,92796,7,4,Full-time,Senin-Jumat,Pagi-Sore,65,Malam
1.30885E+15,Laras Ramadan,perempuan,"Sulawesi Barat, 06-12-1978",45,D3,"Tulungrejo, Blitar, Jawa Timur, 66187, Indonesia",-7.968107878,112.3339406,88784,7,20,Self-Employed,Senin-Jumat,Pagi-Malam,18,Sore
7.73548E+15,Darsirah Januar,laki-laki,"Kalimantan Selatan, 08-02-1990",33,S3,"Pakembangan, Jawa Barat, 45573, Indonesia",-7.011924518,108.5227074,90732,15,18,Employed,Senin-Jumat,Pagi-Sore,341,Malam
1.57526E+15,"Raisa Yolanda, S.I.Kom",laki-laki,"Kalimantan Utara, 23-07-2000",23,D3,"Jawa Barat, Jawa, Indonesia",-6.437410009,108.7564299,35189,14,11,Full-time,Senin-Jumat,Malam-Pagi,121,Pagi
2.66548E+15,Banara Tamba,perempuan,"Gorontalo, 09-12-1978",45,S1,"Jawa Barat, Jawa, Indonesia",-7.855758895,108.3005027,20153,12,15,Employed,Senin-Jumat,Pagi-Sore,50,Malam
5.85054E+15,Tania Natsir,perempuan,"Riau, 23-08-1996",27,SMA,"Bojonegoro, Jawa Timur, 62171, Indonesia",-7.29937108,111.8511514,28548,20,10,Employed,Senin-Jumat,Pagi-Sore,123,Malam
4.40783E+15,Fathonah Wahyudin,perempuan,"Jambi, 28-07-1967",56,S3,"Karangtumaritis, Kabupaten Indramayu, Jawa Barat, Indonesia",-6.459171367,107.8911497,17249,6,10,Part-time,Senin-Jumat,Siang-Sore,194,Pagi
6.94142E+15,Dalima Suryono,laki-laki,"Lampung, 09-03-1960",63,SMA,"Candi, Lebak, Banten, Indonesia",-6.472437514,106.4111341,19691,12,10,Employed,Senin-Jumat,Malam-Pagi,178,Pagi
9.06384E+15,"Dr. Jane Firmansyah, M.Kom.",laki-laki,"Sumatera Barat, 07-07-1967",56,SMA,"tempel, Galoran, Banjarnegara, Jawa Tengah, Jawa, Indonesia",-7.251878827,109.7223652,73630,1,11,Self-Employed,Senin-Jumat,Siang-Sore,6,Pagi
8.95244E+15,Cut Queen Prayoga,perempuan,"Maluku, 22-08-1990",33,S1,Address not found,-7.854793554,106.5296049,88959,17,15,Full-time,Senin-Jumat,Pagi-Sore,279,Malam
4.91587E+15,Cinta Palastri,perempuan,"Maluku, 20-05-1994",29,D4,"Sutopati, Magelang, Jawa Tengah, Jawa, 56374, Indonesia",-7.45783189,110.0688228,29984,20,10,Employed,Senin-Jumat,Malam-Pagi,189,Pagi
8.71311E+15,Hj. Rahayu Andriani,laki-laki,"Maluku, 12-12-1989",34,SMA,"Kedongdong, Jawa Barat, 45166, Indonesia",-6.641706953,108.3695745,98297,18,8,Self-Employed,Senin-Minggu,Sore-Malam,270,Pagi
9.74962E+15,Praba Laksita,laki-laki,"Sulawesi Utara, 17-08-1999",24,SMA,"Bangunreja, Cilacap, Jawa Tengah, Jawa, 53263, Indonesia",-7.496636033,108.7622015,54281,15,5,Self-Employed,Senin-Jumat,Siang-Sore,54,Malam
4.452E+15,"R. Purwa Halim, S.Ked",laki-laki,"Jambi, 18-11-1991",32,D4,"Jawa Barat, 41373, Indonesia",-6.370621976,107.4439431,70533,15,7,Full-time,Senin-Jumat,Pagi-Sore,18,Malam
7.52699E+15,drg. Vanesa Pradana,perempuan,"Aceh, 21-04-1968",55,S2,"Ngasem, Nganjuk, Jawa Timur, Indonesia",-7.531077317,112.1144065,32227,16,16,Employed,Senin-Jumat,Siang-Sore,76,Pagi
1.98261E+15,"Drs. Winda Salahudin, S.Pt",perempuan,"Sulawesi Selatan, 24-03-1970",53,SMP,"Jawa Barat, Jawa, Indonesia",-7.701050737,107.3256515,3911,17,20,Self-Employed,Sabtu-Minggu,Pagi-Siang,135,Sore
7.90145E+15,"Hadi Handayani, S.Kom",laki-laki,"Maluku Utara, 03-08-1973",50,S2,"Citujah, Lebak, Banten, Indonesia",-6.623558196,106.3480577,857,10,17,Part-time,Senin-Jumat,Pagi-Siang,47,Malam
6.07537E+15,"Drs. Virman Anggriawan, S.T.",perempuan,"Papua, 24-10-1984",39,S2,"Cibogo, Sumedang, Jawa Barat, Indonesia",-6.912439055,108.0940197,91611,14,18,Self-Employed,Senin-Jumat,Pagi-Sore,120,Malam
5.21647E+15,Mala Pratiwi,perempuan,"Sulawesi Tenggara, 05-11-1985",38,SMA,Address not found,-7.752636378,106.2671894,92802,17,17,Employed,Senin-Jumat,Siang-Malam,246,Pagi
5.35639E+15,"Bakijan Megantara, M.TI.",perempuan,"Bali, 11-11-1964",59,S1,"Jawa Tengah, Jawa, Indonesia",-7.937614963,109.787062,26661,17,9,Employed,Senin-Minggu,Malam-Pagi,265,Siang
5.34386E+15,"Drs. Queen Haryanto, S.Kom",laki-laki,"Sumatera Barat, 15-04-2000",23,D3,"Jawa Tengah, Jawa, Indonesia",-6.530136744,110.3492834,67912,2,7,Employed,Senin-Jumat,Pagi-Sore,277,Malam
4.61898E+15,Rina Suryatmi,laki-laki,"Papua, 11-04-1987",36,SMA,"Tegal, Kemang, Bogor, Jawa Barat, 16330, Indonesia",-6.479517329,106.7162091,80635,1,7,Self-Employed,Senin-Jumat,Pagi-Sore,19,Malam
7.83889E+15,Irsad Najmudin,perempuan,"Maluku, 06-02-1980",43,D3,"Jawa Barat, Jawa, Indonesia",-7.299547991,106.1772233,41741,3,13,Self-Employed,Senin-Jumat,Pagi-Sore,132,Malam
4.7267E+15,Mahesa Kuswandari,laki-laki,"Sumatera Barat, 07-03-1989",34,S1,"Cilacap, Kelurahan Sidanegara Kecamatan Cilacap, Cilacap, Jawa Tengah, Jawa, 53222, Indonesia",-7.771454253,109.1435383,48491,10,2,Full-time,Senin-Jumat,Siang-Malam,356,Pagi
2.49234E+15,"Aurora Mardhiyah, S.Ked",laki-laki,"Jambi, 16-05-1978",45,SD,"Banten, Jawa, Indonesia",-7.179845994,106.2002511,71496,18,11,Part-time,Senin-Jumat,Malam-Pagi,322,Sore
2.50993E+15,"Tasnim Januar, S.IP",laki-laki,"Gorontalo, 02-06-1966",57,S2,"Krajan Randusari, Salamsari, Kendal, Jawa Tengah, Jawa, 51381, Indonesia",-7.126885379,110.2801691,90708,11,15,Self-Employed,Senin-Jumat,Pagi-Sore,272,Malam
6.56892E+15,"Dr. Cemeti Megantara, S.E.I",perempuan,"Gorontalo, 18-04-1979",44,SMA,"Rancakasumba, Bandung, Jawa Barat, 40382, Indonesia",-7.029542295,107.7344362,58282,13,3,Self-Employed,Senin-Jumat,Pagi-Sore,254,Malam
6.22168E+15,Mutia Lestari,laki-laki,"Kalimantan Timur, 21-07-1990",33,S2,"Tambakboyo, Tuban, Jawa Timur, Indonesia",-6.862522518,111.8124615,69488,5,6,Full-time,Senin-Jumat,Pagi-Sore,224,Malam
1.60973E+15,Dr. Prabawa Mustofa,laki-laki,"Nusa Tenggara Timur, 27-07-1985",38,S2,"Ciawi, Bogor, Jawa Barat, 16720, Indonesia",-6.666813863,106.8475771,65161,4,1,Employed,Senin-Jumat,Pagi-Siang,202,Sore
8.60182E+15,Cengkal Setiawan,laki-laki,"Sumatera Selatan, 19-09-1984",39,S2,"Tanggan, Sragen, Jawa Tengah, Jawa, Indonesia",-7.35980825,111.0060828,53266,16,9,Self-Employed,Senin-Minggu,Pagi-Siang,31,Malam
8.34593E+15,Adinata Hutapea,perempuan,"Sulawesi Utara, 27-09-1969",54,SMP,"Jawa Tengah, Jawa, Indonesia",-6.663872243,109.3060647,60699,4,14,Full-time,Senin-Jumat,Siang-Malam,151,Pagi
6.58148E+15,"Muni Utami, M.Kom.",perempuan,"Kepulauan Bangka Belitung, 17-11-1998",25,SMA,"Jawa Barat, Jawa, Indonesia",-7.515847978,106.5041286,98149,19,13,Full-time,Senin-Jumat,Siang-Sore,313,Malam
1.24149E+15,Cahyanto Riyanti,laki-laki,"Jawa Tengah, 15-10-1964",59,D4,"Jawa Tengah, Jawa, Indonesia",-6.366366988,110.8114178,45239,13,10,Self-Employed,Senin-Jumat,Malam-Pagi,183,Pagi
3.11203E+15,Gantar Mayasari,laki-laki,"Nusa Tenggara Timur, 06-10-1993",30,SMP,"Cikaum Timur, Jawa Barat, Jawa, 41252, Indonesia",-6.447532296,107.7552134,49492,13,11,Self-Employed,Senin-Minggu,Pagi-Sore,66,Malam
4.88558E+15,H. Cakrawangsa Ardianto,laki-laki,"Sulawesi Barat, 09-03-1966",57,S3,"Jawa Tengah, Jawa, Indonesia",-6.585124937,109.1752051,69923,6,15,Full-time,Senin-Minggu,Siang-Sore,34,Malam
2.05825E+15,"Padma Budiyanto, S.Gz",laki-laki,"Sumatera Utara, 27-03-1987",36,S1,"Banten, Jawa, Indonesia",-7.121829063,105.9150009,54043,15,14,Part-time,Senin-Jumat,Siang-Sore,117,Malam
3.68346E+15,"drg. Kiandra Natsir, S.H.",laki-laki,"Banten, 04-07-1993",30,D4,"Banten, Jawa, Indonesia",-7.337832834,105.9180693,56830,18,6,Full-time,Senin-Jumat,Malam-Pagi,202,Pagi
8.83551E+15,Rama Aryani,laki-laki,"Nusa Tenggara Timur, 10-02-1962",61,D4,"Siwuluh, Brebes, Jawa Tengah, Jawa, Indonesia",-6.892610122,108.9886324,97055,12,1,Employed,Senin-Jumat,Pagi-Sore,43,Malam
9.9877E+15,Baktiono Maryadi,perempuan,"Sulawesi Utara, 25-11-1973",50,SMP,Address not found,-7.746480745,105.948476,13421,9,3,Employed,Senin-Jumat,Pagi-Sore,73,Malam
3.52436E+15,Vero Mandala,perempuan,"Sumatera Utara, 16-10-1971",52,S1,"Cilacap, Kelurahan Sidanegara Kecamatan Cilacap, Cilacap, Jawa Tengah, Jawa, 53222, Indonesia",-7.865002652,108.9555852,79359,19,5,Part-time,Senin-Jumat,Siang-Sore,167,Pagi
7.88399E+15,Johan Rahimah,perempuan,"Sulawesi Tengah, 27-03-1978",45,SMP,"Jawa Tengah, Jawa, Indonesia",-6.383753601,109.4689281,64124,10,1,Self-Employed,Senin-Minggu,Pagi-Sore,173,Malam
1.90518E+15,Estiono Utama,laki-laki,"Sumatera Barat, 25-01-1980",43,SMA,"Babakanjati, Jawa Barat, 45170, Indonesia",-6.864510207,108.5446448,85013,13,14,Part-time,Senin-Jumat,Siang-Sore,251,Malam
8.74276E+15,Harsaya Wibowo,perempuan,"Nusa Tenggara Timur, 29-03-1990",33,S1,"Jawa Tengah, Jawa, Indonesia",-6.458053772,110.1098142,51102,9,9,Employed,Senin-Jumat,Pagi-Malam,297,Sore
9.60001E+15,KH. Harjo Anggraini,perempuan,"Jambi, 20-12-1983",40,S2,"Jawa Barat, Jawa, Indonesia",-7.620321611,106.8228434,80806,12,20,Employed,Senin-Jumat,Pagi-Sore,81,Malam
6.0085E+15,Ami Samosir,laki-laki,"Lampung, 05-11-1985",38,D3,"Jawa Tengah, Jawa, Indonesia",-6.451479754,109.6532184,75372,16,13,Employed,Senin-Jumat,Pagi-Sore,94,Malam
4.91894E+15,Budi Rahayu,laki-laki,"Banten, 08-12-1985",38,SMA,"Kwadungan Lor, Jawa Timur, Jawa, Indonesia",-7.417112203,111.5359191,38468,12,7,Full-time,Senin-Minggu,Pagi-Sore,149,Malam
7.35548E+15,"Wage Jailani, S.Farm",perempuan,"Jawa Barat, 20-09-1988",35,SMA,"Tanjungmulya, Garut, Jawa Barat, Indonesia",-7.494733569,107.6338273,38892,9,13,Part-time,Senin-Jumat,Sore-Malam,294,Pagi
4.26401E+15,Vivi Suwarno,laki-laki,"Jawa Timur, 05-02-1990",33,SD,"Sumbersari, Rembang, Jawa Tengah, Jawa, Indonesia",-6.644176063,111.5853746,21086,16,6,Employed,Senin-Jumat,Pagi-Sore,317,Malam
6.87803E+15,Rahmi Haryanti,perempuan,"Papua Barat, 23-12-1998",25,SMP,"Tlemang, Ngimbang, Lamongan, Jawa Timur, Indonesia",-7.255692949,112.1755218,65237,1,16,Self-Employed,Senin-Jumat,Pagi-Sore,96,Malam
7.39733E+15,Karna Laksita,laki-laki,"Kalimantan Barat, 17-07-1964",59,S2,"Wonoharjo, Wonogiri, Jawa Tengah, Jawa, 57784, Indonesia",-7.765416269,110.9487404,84414,4,8,Employed,Senin-Jumat,Siang-Malam,299,Pagi
2.99694E+15,Pia Latupono,perempuan,"Sumatera Utara, 08-05-1997",26,SMA,"Jawa Barat, Jawa, Indonesia",-6.472361027,108.7649776,71078,4,17,Employed,Senin-Jumat,Siang-Malam,327,Pagi
8.10465E+15,Ivan Maheswara,perempuan,"Lampung, 10-08-1964",59,SMA,"Garawastu, Majalengka, Jawa Barat, 45471, Indonesia",-6.843199105,108.3269658,45095,10,1,Full-time,Senin-Jumat,Pagi-Malam,241,Siang
9.80055E+15,Hamima Saefullah,laki-laki,"Sumatera Utara, 06-02-1973",50,SMA,"Gondanggunung, Tulungagung, Jawa Timur, Indonesia",-7.909370358,111.778992,32501,2,6,Employed,Senin-Jumat,Siang-Malam,267,Pagi
2.96948E+15,"Jabal Melani, S.I.Kom",perempuan,"Papua Barat, 21-06-1976",47,S1,"Warungbanten, Lebak, Banten, Indonesia",-6.823815076,106.3368091,67167,3,18,Self-Employed,Senin-Jumat,Sore-Malam,252,Siang
5.08338E+15,Alika Astuti,perempuan,"Bengkulu, 01-04-1991",32,S2,"Jalan Tol Semarangâ€“Demak, Ceper, Kedunguter, Demak, Jawa Tengah, Jawa, 59563, Indonesia",-6.938663124,110.5780415,43125,11,1,Full-time,Senin-Minggu,Pagi-Sore,125,Malam
8.54447E+15,Vino Nashiruddin,laki-laki,"Kalimantan Selatan, 17-08-1987",36,D3,"Jawa Tengah, Jawa, Indonesia",-6.363390285,109.5647547,82525,17,8,Employed,Senin-Jumat,Malam-Pagi,155,Sore
9.76247E+15,Raisa Lailasari,perempuan,"Sumatera Barat, 17-09-1962",61,S2,"Sendangasri, Rembang, Jawa Tengah, Jawa, 59262, Indonesia",-6.687227673,111.4694019,35419,6,16,Self-Employed,Senin-Jumat,Pagi-Sore,320,Malam
4.88556E+15,Kawaca Suwarno,laki-laki,"Papua Barat, 21-06-2000",23,SMA,"Jawa Tengah, Jawa, Indonesia",-6.358886069,110.6459924,87959,7,17,Self-Employed,Senin-Jumat,Pagi-Siang,296,Sore
7.01293E+15,Mujur Widodo,laki-laki,"Kalimantan Timur, 16-11-1960",63,SMA,"Kalisasak, Ungaran, Semarang, Jawa Tengah, Jawa, 50661, Indonesia",-7.221898406,110.4527787,85032,3,9,Self-Employed,Senin-Jumat,Pagi-Sore,59,Malam
8.99765E+15,Rika Setiawan,laki-laki,"DKI Jakarta, 21-01-1984",39,SD,"Waru, Kabupaten Indramayu, Jawa Barat, 45252, Indonesia",-6.421449633,108.2436941,44780,8,5,Employed,Senin-Jumat,Sore-Malam,96,Siang
3.80467E+15,R. Muni Prastuti,laki-laki,"Maluku, 18-08-1994",29,D4,"Jawa Timur, Jawa, Indonesia",-6.37079415,112.1760181,17315,3,2,Employed,Senin-Jumat,Pagi-Sore,342,Malam
3.36737E+15,Najwa Novitasari,laki-laki,"Sumatera Barat, 07-05-1996",27,S3,"Jawa Tengah, Jawa, Indonesia",-6.579202128,110.5775111,39496,16,6,Self-Employed,Senin-Jumat,Pagi-Sore,212,Malam
3.61762E+15,Paulin Megantara,laki-laki,"Kepulauan Riau, 22-12-1977",46,SMA,"Jawa Tengah, Jawa, Indonesia",-6.319948436,111.082121,60906,17,15,Self-Employed,Senin-Minggu,Pagi-Sore,261,Malam
2.05057E+15,"Banawa Santoso, S.H.",laki-laki,"DI Yogyakarta, 10-05-1970",53,S3,"Jawa Tengah, Jawa, Indonesia",-6.747898346,110.5167323,35756,4,9,Full-time,Senin-Jumat,Pagi-Sore,194,Malam
8.9203E+15,"Harjaya Sirait, M.Ak",laki-laki,"Kepulauan Bangka Belitung, 20-03-1991",32,S1,"Jawa Tengah, Jawa, Indonesia",-6.326554684,109.7516194,85133,16,1,Self-Employed,Senin-Jumat,Siang-Sore,111,Malam
1.7808E+15,"Dadi Marbun, M.TI.",perempuan,"Bengkulu, 18-04-1981",42,SMA,"Gandasoli, Jawa Barat, Indonesia",-6.706261193,107.8062791,50678,15,4,Employed,Senin-Jumat,Pagi-Sore,308,Malam
5.63298E+15,Hardi Dongoran,perempuan,"Maluku, 21-01-1978",45,SMA,"Kina Balu II, Grand Pinus Regency, Cisaranten Kulon, Arcamanik, Kel. Cisaranten Kulon, Jawa Barat, Jawa, 40295, Indonesia",-6.934122738,107.6815086,11714,16,12,Employed,Senin-Jumat,Pagi-Sore,136,Malam
5.24733E+15,Kunthara Waskita,perempuan,"Jawa Barat, 08-09-1993",30,D4,"Karangrejo, Jawa Timur, Jawa, Indonesia",-7.945135744,112.0385339,54333,8,9,Self-Employed,Senin-Jumat,Pagi-Sore,249,Malam
6.44947E+15,"Drs. Rachel Haryanti, M.Farm",laki-laki,"Kepulauan Bangka Belitung, 26-01-1967",56,S1,"Tinumpuk, Purwosari, Bojonegoro, Jawa Timur, Indonesia",-7.222856726,111.6737834,59875,16,13,Full-time,Senin-Jumat,Pagi-Malam,326,Sore
6.29057E+15,Aris Hakim,laki-laki,"Lampung, 20-03-1993",30,S1,"Sinarlaut, Cianjur, Jawa Barat, Jawa, Indonesia",-7.423272951,106.8414109,73606,3,19,Self-Employed,Senin-Minggu,Pagi-Sore,71,Malam
1.64929E+15,"H. Jarwa Safitri, M.Farm",laki-laki,"Sulawesi Utara, 25-09-1998",25,SMP,"Tlogowaru, Rejosari, Demak, Jawa Tengah, Jawa, Indonesia",-6.909840454,110.5904627,28035,1,2,Self-Employed,Senin-Minggu,Pagi-Sore,310,Malam
6.23507E+15,"KH. Kunthara Setiawan, S.Pt",perempuan,"Kepulauan Bangka Belitung, 08-02-1962",61,SMA,"Jawa Tengah, Jawa, Indonesia",-6.485458413,109.6895663,74233,11,17,Part-time,Senin-Jumat,Malam-Pagi,338,Pagi
7.90812E+15,"Yuni Halimah, S.E.I",laki-laki,"Jawa Tengah, 19-08-1974",49,S1,"Pasir Malang, Bandung, Jawa Barat, 40378, Indonesia",-7.207510603,107.5155046,19614,6,9,Self-Employed,Senin-Jumat,Sore-Malam,246,Siang
2.51717E+15,Tiara Mardhiyah,perempuan,"Sumatera Barat, 29-03-1969",54,SMP,"Ngasinan, Sukoharjo, Jawa Tengah, Jawa, 57561, Indonesia",-7.741565894,110.8331373,77665,8,11,Employed,Senin-Jumat,Siang-Sore,39,Pagi
9.7184E+15,Dasa Kusumo,perempuan,"Jawa Barat, 21-05-1966",57,S1,"Nyamplung Sari, Pemalang, Jawa Tengah, Jawa, Indonesia",-6.8057406,109.4634196,92745,10,5,Retired,,,155,Malam
3.91921E+15,KH. Laswi Hidayanto,perempuan,"DKI Jakarta, 27-12-1965",58,SMP,"Prigi, Grobogan, Jawa Tengah, Jawa, Indonesia",-7.177827899,110.5675961,90557,5,1,Employed,Senin-Minggu,Siang-Sore,210,Malam
3.37925E+15,Nurul Wibowo,laki-laki,"Sulawesi Barat, 02-08-1983",40,D3,"Baturaden, Banyumas, Jawa Tengah, 53151, Indonesia",-7.293471327,109.1955291,38310,2,6,Self-Employed,Senin-Minggu,Pagi-Siang,89,Sore
1.6848E+15,Silvia Firgantoro,laki-laki,"Kepulauan Riau, 21-05-1962",61,S1,"Jawa Tengah, Jawa, Indonesia",-7.980472918,109.2279413,62683,10,19,Full-time,Senin-Jumat,Pagi-Malam,294,Siang
4.9119E+15,Aisyah Nasyiah,perempuan,"Riau, 24-12-1978",45,S1,"Karang Wuni, Karangwuni, Wates, Kulon Progo, Daerah Istimewa Yogyakarta, Jawa, 55654, Indonesia",-7.94749803,110.0863245,32681,8,3,Self-Employed,Senin-Minggu,Pagi-Sore,348,Malam
2.65427E+15,"Sutan Waluyo Januar, S.Pd",laki-laki,"Sulawesi Selatan, 19-10-1969",54,S1,"Jalan Bayongbong-Garut, Mangkurayat, Garut, Jawa Barat, 44119, Indonesia",-7.257333386,107.867974,92756,2,7,Full-time,Senin-Jumat,Malam-Pagi,56,Siang
9.98595E+15,Cawuk Wastuti,laki-laki,"Kepulauan Bangka Belitung, 14-08-1999",24,SMP,"Jalan Raya Batulawang, Mekarsari, Banjar, Jawa Barat, Jawa, 46323, Indonesia",-7.397822619,108.5372409,94630,11,3,Full-time,Senin-Jumat,Pagi-Sore,79,Malam
2.89288E+15,"Indah Simbolon, M.Ak",laki-laki,"Kepulauan Riau, 24-09-1962",61,SMA,"Cirea, Jawa Barat, 45558, Indonesia",-6.798553314,108.4622999,6745,14,6,Full-time,Senin-Minggu,Pagi-Sore,202,Malam
2.47154E+15,Qori Yolanda,laki-laki,"Bengkulu, 26-05-1978",45,S1,"Babakan Jawa, Majalengka, Jawa Barat, 45400, Indonesia",-6.885846134,108.2184435,18259,9,11,Full-time,Senin-Jumat,Pagi-Sore,59,Malam
8.03357E+15,"Dr. Yessi Uwais, S.Psi",perempuan,"Nusa Tenggara Barat, 12-05-1989",34,SMA,"Lancar, Wonosobo, Jawa Tengah, Jawa, Indonesia",-7.545016665,109.7529743,53360,12,6,Self-Employed,Senin-Jumat,Pagi-Sore,34,Malam
6.47018E+15,"R. Banara Wibisono, S.Gz",perempuan,"Jawa Barat, 10-09-1962",61,D4,"Cigadung, Brebes, Jawa Tengah, Jawa, Indonesia",-6.989257596,108.818675,84532,14,2,Self-Employed,Senin-Jumat,Sore-Malam,102,Siang
6.47428E+15,Tomi Nasyidah,perempuan,"Lampung, 25-10-1972",51,SMA,"Jalan Raya Cinere Residence, Meruyung, Limo, Depok, Bogor, Jawa Barat, Jawa, 16515, Indonesia",-6.375925779,106.7624991,78864,10,17,Full-time,Senin-Minggu,Malam-Pagi,45,Pagi
1.90142E+15,Zulaikha Andriani,laki-laki,"Kepulauan Riau, 05-08-1981",42,D4,"Watukumpul, Pemalang, Jawa Tengah, Jawa, Indonesia",-7.148709632,109.4221815,44156,17,15,Self-Employed,Senin-Jumat,Malam-Pagi,126,Pagi
4.50867E+15,Genta Yuniar,perempuan,"Riau, 21-03-1991",32,SMP,"Jawa Tengah, Jawa, Indonesia",-6.345986839,110.0886428,79163,16,13,Part-time,Senin-Minggu,Pagi-Siang,334,Sore
9.00595E+15,Garda Ramadan,laki-laki,"Kalimantan Utara, 06-03-1982",41,S2,"Jawa Tengah, Jawa, Indonesia",-6.710922351,110.2639035,96335,10,13,Employed,Senin-Jumat,Sore-Malam,9,Pagi
1.63073E+15,Sutan Gangsa Pratama,laki-laki,"Kepulauan Riau, 29-07-1994",29,SMA,"Krisik, Blitar, Jawa Timur, 66187, Indonesia",-7.958846256,112.3694189,25835,18,17,Self-Employed,Senin-Jumat,Pagi-Sore,339,Malam
8.96907E+15,Oliva Aryani,perempuan,"Lampung, 18-12-1993",30,S1,"Cibiyuk, Pemalang, Jawa Tengah, Jawa, Indonesia",-6.918795913,109.4913797,2888,9,3,Employed,Senin-Jumat,Pagi-Sore,93,Malam
9.98194E+15,Martaka Melani,laki-laki,"Jawa Barat, 12-04-1987",36,SMA,"Jawa Tengah, Jawa, Indonesia",-6.605518253,108.8863436,3765,9,17,Employed,Senin-Jumat,Pagi-Sore,306,Malam
4.95363E+15,Cahya Pradipta,laki-laki,"Papua Barat, 26-02-1963",60,S2,"Ngarjosari, Wonogiri, Jawa Tengah, Jawa, Indonesia",-7.920862959,111.0426494,4152,17,13,Full-time,Senin-Minggu,Pagi-Sore,326,Malam
8.9889E+15,"H. Lega Hidayanto, S.IP",laki-laki,"Kalimantan Timur, 08-02-1961",62,SMP,"Wanahayu, Majalengka, Jawa Barat, Indonesia",-6.917741148,108.3011223,60197,3,1,Self-Employed,Senin-Jumat,Pagi-Sore,133,Malam
1.00219E+15,Pardi Lestari,laki-laki,"Kalimantan Timur, 13-07-1960",63,D4,"Ciampanan, Tasikmalaya, Jawa Barat, 45377, Indonesia",-7.378270119,108.3668746,608,16,13,Self-Employed,Senin-Jumat,Siang-Sore,149,Pagi
5.28342E+15,Harja Saputra,perempuan,"Riau, 12-02-1967",56,S1,"Jawa Barat, Jawa, Indonesia",-7.335012118,106.3120057,38227,17,15,Self-Employed,Senin-Minggu,Pagi-Sore,313,Malam
4.74708E+15,Padmi Setiawan,laki-laki,"Jambi, 23-04-1987",36,S2,"Gerdu, Gabus, Pati, Jawa Tengah, Jawa, 59173, Indonesia",-6.83727739,111.0568994,50477,13,11,Full-time,Senin-Jumat,Pagi-Sore,269,Malam
2.43799E+15,"Nadia Handayani, M.Kom.",laki-laki,"Sulawesi Selatan, 09-05-1965",58,D4,"Banten, Jawa, Indonesia",-7.104257023,105.8953085,25920,9,20,Self-Employed,Senin-Jumat,Pagi-Malam,70,Sore
2.32068E+15,Kardi Wasita,perempuan,"Kepulauan Riau, 27-11-1988",35,SMA,"Nagrak, Sumedang, Jawa Barat, Indonesia",-6.693650173,107.9800208,87851,19,8,Self-Employed,Senin-Jumat,Sore-Malam,302,Pagi
5.91414E+15,drg. Nova Habibi,laki-laki,"Bengkulu, 01-12-1980",43,S1,"Jawa Tengah, Jawa, Indonesia",-6.305151032,110.3796704,35928,16,20,Employed,Senin-Jumat,Pagi-Sore,345,Malam
6.61027E+15,Humaira Situmorang,perempuan,"Jawa Barat, 14-01-1977",46,D4,"Pangandaran, Jawa Barat, Indonesia",-7.553819213,108.4612954,42574,5,10,Employed,Senin-Jumat,Pagi-Sore,352,Malam
4.87345E+15,Jinawi Pratiwi,laki-laki,"Riau, 25-04-1982",41,S1,"Kadipiro, Karanganyar, Jawa Tengah, Jawa, Indonesia",-7.716167957,111.0542506,17009,5,7,Self-Employed,Senin-Jumat,Pagi-Sore,219,Malam
3.97823E+15,Dono Haryanto,laki-laki,"DKI Jakarta, 18-01-1977",46,D4,"Kadujajar, Lebak, Banten, Indonesia",-6.769901438,106.0688695,48115,11,9,Part-time,Senin-Jumat,Pagi-Siang,118,Sore
7.26419E+15,"Rusman Wulandari, S.H.",laki-laki,"Sulawesi Tengah, 01-02-1981",42,SMA,Address not found,-7.920908216,106.4546309,37058,10,6,Full-time,Senin-Jumat,Sore-Malam,106,Pagi
5.88433E+15,"Padma Mandasari, M.Ak",perempuan,"Sumatera Selatan, 03-02-1960",63,S1,"Sawangan, Kebumen, Jawa Tengah, Indonesia",-7.638525307,109.7083751,48302,1,7,Full-time,Senin-Jumat,Pagi-Sore,109,Malam
6.46806E+15,Harja Zulkarnain,laki-laki,"Kalimantan Barat, 05-05-1993",30,SMA,"Hegarmanah, Lebak, Banten, Indonesia",-6.819733677,106.2673671,40199,14,7,Full-time,Senin-Jumat,Pagi-Sore,25,Malam
9.23509E+15,Jati Mandasari,perempuan,"Sulawesi Tenggara, 17-10-1969",54,SD,"Jawa Tengah, Jawa, Indonesia",-6.563881515,109.2896504,57763,17,20,Full-time,Senin-Jumat,Pagi-Sore,331,Malam
9.22452E+15,Ratih Permata,perempuan,"Jambi, 07-05-1975",48,SMA,"Grobogan, Jawa Tengah, Jawa, Indonesia",-7.010564977,111.1715887,95428,17,1,Full-time,Senin-Minggu,Pagi-Sore,145,Malam
6.47783E+15,Dadap Nuraini,laki-laki,"Banten, 30-09-1993",30,D4,"Plosorejo, Curug, Grobogan, Jawa Tengah, Jawa, 58165, Indonesia",-7.009443819,110.6341428,95723,14,18,Self-Employed,Senin-Jumat,Sore-Malam,57,Siang
7.12461E+15,Farhunnisa Wibowo,laki-laki,"Maluku, 04-05-1988",35,SD,"Jawa Barat, Jawa, Indonesia",-7.56683273,107.1970591,45689,1,1,Employed,Senin-Jumat,Sore-Malam,73,Pagi
6.78577E+15,Ir. Darmanto Nashiruddin,laki-laki,"Kalimantan Tengah, 08-07-1998",25,S2,"Banyutowo, Pati, Jawa Tengah, Jawa, Indonesia",-6.4498625,111.0661171,11788,19,6,Part-time,Senin-Jumat,Sore-Malam,162,Siang
6.55777E+15,"Pangestu Siregar, S.Pt",perempuan,"Jawa Tengah, 02-11-1973",50,SMA,"Warungpring, Pemalang, Jawa Tengah, Jawa, Indonesia",-7.070160802,109.2534587,79098,4,13,Retired,,,69,Pagi
9.48957E+15,"R.A. Zamira Utami, S.I.Kom",laki-laki,"Bali, 26-07-1998",25,SMA,"Jawa Timur, Jawa, Indonesia",-6.647512555,111.8864401,60124,10,19,Full-time,Senin-Jumat,Malam-Pagi,201,Siang
6.42988E+15,"Humaira Nuraini, M.M.",laki-laki,"Jambi, 14-09-1998",25,SMA,"Girijaya, Garut, Jawa Barat, Indonesia",-7.067771956,108.0129669,54320,4,15,Part-time,Senin-Jumat,Malam-Pagi,263,Pagi
7.81165E+15,Dr. Arsipatra Padmasari,perempuan,"Nusa Tenggara Timur, 23-04-1970",53,S1,Address not found,-7.968402791,107.8376249,19249,13,15,Employed,Senin-Jumat,Sore-Malam,244,Siang
6.76676E+15,Nova Suryono,laki-laki,"Sulawesi Utara, 06-10-1971",52,SMA,"Jawa Tengah, Jawa, Indonesia",-6.634136511,110.384449,882,12,5,Employed,Senin-Jumat,Pagi-Sore,331,Malam
1.74523E+15,"Ridwan Hakim, M.Kom.",perempuan,"Jambi, 01-03-1999",24,S2,"Kudumulya, Jawa Barat, 45191, Indonesia",-6.872651442,108.729195,34542,17,1,Self-Employed,Senin-Jumat,Pagi-Sore,83,Malam
9.71534E+15,Mitra Mansur,perempuan,"Sumatera Barat, 11-12-1981",42,SMA,"Kebon Cau, Sumedang, Jawa Barat, Indonesia",-6.732312445,108.1362504,95484,7,18,Employed,Senin-Jumat,Pagi-Sore,68,Malam
7.28262E+15,"Aisyah Prasetyo, M.TI.",perempuan,"Aceh, 12-08-1995",28,S1,"Jambudipa, Bandung Barat, Jawa Barat, 40551, Indonesia",-6.806841816,107.5711702,80531,1,9,Employed,Senin-Jumat,Pagi-Sore,160,Malam
3.72516E+15,Hendra Wulandari,laki-laki,"Bengkulu, 29-06-1981",42,S1,Address not found,-7.989724391,109.2148521,57724,19,10,Full-time,Senin-Jumat,Pagi-Malam,287,Siang
4.348E+15,Empluk Astuti,perempuan,"Bengkulu, 15-10-1985",38,SD,"Jawa Barat, Jawa, Indonesia",-6.314835563,108.6579413,82918,16,16,Employed,Senin-Jumat,Sore-Malam,182,Siang
8.16286E+15,Farah Suartini,laki-laki,"Papua, 23-10-1973",50,S2,"Selorejo, Jombang, Jawa Timur, Jawa, Indonesia",-7.604068875,112.3076528,82243,13,1,Full-time,Senin-Jumat,Pagi-Sore,224,Malam
9.97223E+15,Raden Waluyo,perempuan,"Jawa Tengah, 30-03-1974",49,S3,"Jawa Timur, Jawa, Indonesia",-6.301044065,111.8635417,83902,4,1,Self-Employed,Senin-Jumat,Malam-Pagi,240,Siang
1.24532E+15,"Vanesa Suryatmi, M.Pd",perempuan,"Sulawesi Utara, 25-08-1962",61,D4,"Jawa Tengah, Jawa, Indonesia",-6.371213229,109.5740861,74445,8,13,Full-time,Senin-Jumat,Siang-Sore,104,Pagi
4.59949E+15,Bakiman Adriansyah,laki-laki,"Kepulauan Bangka Belitung, 11-05-1966",57,SMA,"Rendeng, Rembang, Jawa Tengah, Jawa, 59262, Indonesia",-6.808803167,111.5150897,13936,5,8,Self-Employed,Senin-Jumat,Sore-Malam,281,Pagi
6.65407E+15,Ratih Widiastuti,laki-laki,"Sulawesi Tenggara, 26-04-1973",50,S2,"Kamal, Dukuhseti, Pati, Jawa Tengah, Jawa, Indonesia",-6.466104875,111.0476843,9164,18,5,Employed,Senin-Jumat,Pagi-Sore,165,Malam
4.13538E+15,"Kiandra Yolanda, S.Psi",laki-laki,"Kepulauan Bangka Belitung, 20-07-1977",46,SMA,"Sayutan, Magetan, Jawa Timur, Jawa, Indonesia",-7.76866214,111.2953575,61314,14,1,Employed,Senin-Jumat,Pagi-Sore,76,Malam
5.23367E+15,R.A. Yessi Hidayat,perempuan,"Sulawesi Selatan, 15-01-1987",36,D4,"Jawa Barat, Jawa, Indonesia",-7.547555123,107.4382588,47573,11,10,Self-Employed,Senin-Jumat,Pagi-Malam,85,Sore
6.83399E+15,"Ir. Wulan Widiastuti, M.Pd",perempuan,"DKI Jakarta, 16-11-1970",53,SMA,"Sukamurni, Garut, Jawa Barat, 44181, Indonesia",-7.357967372,107.8945349,71184,9,12,Self-Employed,Senin-Jumat,Pagi-Sore,275,Malam
7.30566E+15,"Opung Yuniar, M.Kom.",perempuan,"Aceh, 12-07-1977",46,S1,"Jayamanik, Lebak, Banten, Indonesia",-6.504258297,106.2428924,44262,20,3,Full-time,Senin-Jumat,Siang-Malam,329,Pagi
1.66365E+15,"R.A. Ratna Mulyani, S.Gz",perempuan,"Sumatera Utara, 30-10-2000",23,S1,"Jawa Tengah, Jawa, Indonesia",-6.720775704,110.2469816,50748,11,4,Employed,Senin-Jumat,Siang-Sore,309,Pagi
3.3105E+15,Pranata Purwanti,laki-laki,"Kepulauan Bangka Belitung, 25-11-1986",37,D4,Address not found,-7.855354386,106.2990415,84095,6,4,Part-time,Senin-Jumat,Pagi-Siang,278,Malam
2.60805E+15,Hani Manullang,perempuan,"Sulawesi Tenggara, 26-04-1995",28,D3,"Juntinyuat, Kabupaten Indramayu, Jawa Barat, Indonesia",-6.410346093,108.4441441,22746,15,12,Full-time,Senin-Jumat,Sore-Malam,355,Pagi
5.68965E+15,Mitra Haryanto,laki-laki,"Bengkulu, 11-06-1977",46,S1,"Sonorejo, Blora, Jawa Tengah, Jawa, Indonesia",-6.954664429,111.4054486,76384,4,8,Employed,Senin-Jumat,Pagi-Sore,103,Malam
1.11312E+15,"Cut Umi Permata, S.I.Kom",perempuan,"Papua Barat, 07-05-1971",52,S1,Address not found,-7.789305651,106.1533289,40236,11,10,Part-time,Senin-Jumat,Pagi-Siang,146,Sore
6.37964E+15,Zelda Zulkarnain,laki-laki,"DKI Jakarta, 09-04-1982",41,S1,"Wiroko, Wonogiri, Jawa Tengah, Jawa, 57677, Indonesia",-7.964753298,111.0701399,40235,20,4,Self-Employed,Senin-Minggu,Pagi-Sore,81,Malam
6.02961E+15,"Ir. Jessica Prasetya, S.Sos",laki-laki,"Nusa Tenggara Timur, 02-09-1977",46,SMA,"Jawa Tengah, Jawa, Indonesia",-6.50347856,110.4273657,19913,14,2,Self-Employed,Senin-Jumat,Pagi-Sore,85,Malam
5.61364E+15,Hafshah Jailani,perempuan,"Sulawesi Tenggara, 27-04-1979",44,D3,"Pengempon, Kebumen, Jawa Tengah, Jawa, 54364, Indonesia",-7.631341196,109.6208734,35678,17,12,Full-time,Senin-Minggu,Sore-Malam,74,Siang
6.95515E+15,Gaman Saptono,laki-laki,"Kalimantan Timur, 30-05-1963",60,D4,"Cikalongsari, Jawa Barat, Indonesia",-6.382277217,107.5497048,81470,12,6,Full-time,Senin-Jumat,Malam-Pagi,326,Pagi
4.0981E+15,"Tirta Nainggolan, M.Pd",laki-laki,"Kalimantan Selatan, 31-05-1972",51,S2,"Cinisti, Garut, Jawa Barat, Indonesia",-7.294304845,107.8445329,89602,20,1,Full-time,Senin-Jumat,Pagi-Sore,100,Malam
6.86013E+15,Safina Namaga,perempuan,"Kalimantan Selatan, 27-11-1988",35,D3,"Jebol, Jepara, Jawa Tengah, Jawa, 59465, Indonesia",-6.732189345,110.7497046,96285,4,2,Retired,,,49,Malam
4.6065E+15,"Cut Uli Farida, S.E.I",perempuan,"Bengkulu, 31-10-1988",35,SMA,"Putridalem, Majalengka, Jawa Barat, Jawa, Indonesia",-6.640128804,108.2587051,27039,20,19,Full-time,Senin-Jumat,Malam-Pagi,16,Pagi
5.70806E+15,Hesti Sudiati,laki-laki,"DKI Jakarta, 30-10-1973",50,D3,"Bandung, Jawa Barat, Indonesia",-7.207877481,107.280192,87007,4,11,Part-time,Senin-Jumat,Pagi-Siang,350,Sore
3.94182E+15,"Adhiarja Halimah, M.Farm",perempuan,"Maluku, 15-06-1979",44,SMA,"Kudangwangi, Sumedang, Jawa Barat, Indonesia",-6.726557262,108.1500529,64685,2,13,Self-Employed,Senin-Jumat,Sore-Malam,347,Pagi
5.66019E+15,"Gaman Kusmawati, S.Kom",perempuan,"Sulawesi Tenggara, 05-04-1982",41,S1,"Jawa Timur, Jawa, Indonesia",-6.826223965,112.1664837,48152,15,19,Self-Employed,Senin-Jumat,Pagi-Siang,167,Malam
2.28877E+15,Betania Tampubolon,laki-laki,"Kepulauan Bangka Belitung, 03-02-1981",42,SMA,Address not found,-7.961084917,106.4038777,28634,12,14,Self-Employed,Senin-Minggu,Pagi-Sore,85,Malam
3.16575E+15,Taufan Wibowo,perempuan,"DI Yogyakarta, 16-09-1970",53,S3,"Jawa Tengah, Jawa, Indonesia",-6.389001263,109.7407804,63140,19,20,Part-time,Senin-Minggu,Sore-Malam,296,Pagi
3.99771E+15,Perkasa Suryono,perempuan,"Sulawesi Tengah, 02-02-1982",41,SMA,Address not found,-7.879363794,106.9920635,11278,1,3,Full-time,Senin-Minggu,Malam-Pagi,227,Pagi
6.52304E+15,"dr. Jumadi Hardiansyah, M.TI.",laki-laki,"Kepulauan Riau, 28-08-1978",45,SMA,"Jawa Barat, 41263, Indonesia",-6.402918244,107.6941885,60570,4,13,Full-time,Senin-Jumat,Pagi-Sore,343,Malam
7.97728E+15,Maryadi Kuswoyo,perempuan,"Kepulauan Riau, 26-11-1974",49,S2,"Banten, Jawa, Indonesia",-7.044252481,106.2009107,7780,11,12,Self-Employed,Senin-Jumat,Malam-Pagi,47,Siang
8.48751E+15,Banawi Yuniar,laki-laki,"Sulawesi Barat, 01-07-1978",45,D4,"Dukuhjati, Kabupaten Indramayu, Jawa Barat, Jawa, Indonesia",-6.510390241,108.4539451,8265,7,8,Self-Employed,Senin-Jumat,Siang-Sore,289,Pagi
5.87438E+15,Ella Lailasari,laki-laki,"Kalimantan Selatan, 25-09-1989",34,SD,"Cisarua, Bogor, Jawa Barat, 16750, Indonesia",-6.671181218,106.9353421,46635,4,16,Part-time,Senin-Jumat,Sore-Malam,17,Pagi
6.85396E+15,Drs. Mutia Wibowo,perempuan,"Maluku Utara, 17-11-1963",60,S1,"Balong, Randusari, Kendal, Jawa Tengah, Jawa, 51353, Indonesia",-6.943395922,110.0777669,37982,10,13,Full-time,Senin-Jumat,Pagi-Sore,69,Malam
8.65887E+15,Rahman Usada,laki-laki,"Papua, 20-01-1974",49,SMP,"Kutamaneuh, Jawa Barat, Indonesia",-6.481399045,107.2745177,22257,18,13,Employed,Senin-Jumat,Malam-Pagi,136,Pagi
5.05027E+15,H. Kawaya Sihombing,laki-laki,"Bengkulu, 27-12-1990",33,SMA,"Jawa Timur, Jawa, Indonesia",-6.398003074,112.1251385,69514,6,17,Employed,Senin-Minggu,Pagi-Sore,209,Malam
7.14368E+15,Kuncara Hasanah,laki-laki,"Kepulauan Bangka Belitung, 17-06-1964",59,S1,Address not found,-7.673847994,106.1903115,82304,6,3,Employed,Senin-Jumat,Sore-Malam,31,Siang
5.29216E+15,"Kasusra Pratama, M.M.",perempuan,"Bengkulu, 23-06-1964",59,SD,"Cimayang, Lebak, Banten, Indonesia",-6.650048289,106.1940008,98829,7,14,Employed,Senin-Jumat,Pagi-Malam,125,Sore
6.17921E+15,"T. Garang Lazuardi, M.TI.",laki-laki,"Kalimantan Barat, 22-05-1975",48,SMA,"Punthukrejo, Tegalmade, Sukoharjo, Jawa Tengah, Jawa, 57554, Indonesia",-7.612996178,110.846435,49029,1,6,Employed,Senin-Minggu,Pagi-Sore,96,Malam
9.27307E+15,Indah Nurdiyanti,laki-laki,"Riau, 24-04-1995",28,SD,"Botoreco, Blora, Jawa Tengah, Indonesia",-7.122340396,111.2742256,68277,19,12,Employed,Senin-Jumat,Pagi-Sore,298,Malam
3.82547E+15,Dimas Gunarto,perempuan,"Kalimantan Tengah, 15-10-1978",45,D3,"Jeblogan, Jawa Timur, Jawa, Indonesia",-7.436337724,111.3308527,22221,20,1,Employed,Senin-Jumat,Siang-Malam,114,Pagi
9.35795E+15,Puspa Tampubolon,laki-laki,"Aceh, 05-09-1990",33,S1,"Sawangan, Cilacap, Jawa Tengah, Jawa, Indonesia",-7.590021028,108.9740127,83113,1,7,Self-Employed,Senin-Jumat,Malam-Pagi,169,Siang
4.50415E+15,Anastasia Mahendra,perempuan,"Bali, 12-09-1987",36,SMP,"Kragilan, Purworejo, Jawa Tengah, Jawa, Indonesia",-7.633671758,109.9781479,9074,18,4,Part-time,Senin-Jumat,Malam-Pagi,300,Pagi
6.93862E+15,Novi Anggraini,laki-laki,"Sulawesi Tengah, 24-07-1994",29,S2,"Kompa, Sukabumi, Jawa Barat, Indonesia",-6.825777,106.7447887,18230,8,7,Full-time,Senin-Jumat,Pagi-Malam,285,Sore
4.41317E+15,Kenari Laksmiwati,laki-laki,"Sulawesi Selatan, 24-11-1971",52,S1,"Sirnaresmi, Sukabumi, Jawa Barat, 43156, Indonesia",-6.938626059,106.8488866,83425,20,16,Self-Employed,Senin-Jumat,Pagi-Malam,245,Siang
9.55069E+15,Umaya Mandasari,perempuan,"Sulawesi Barat, 24-05-1992",31,SMA,Address not found,-7.770686711,106.1158855,11829,16,10,Employed,Senin-Jumat,Sore-Malam,69,Pagi
8.04848E+15,Gamani Adriansyah,perempuan,"Jambi, 22-04-1966",57,S1,"Purwasari, Ciamis, Jawa Barat, Jawa, Indonesia",-7.151917506,108.3963288,34080,9,12,Full-time,Senin-Jumat,Malam-Pagi,278,Siang
3.64349E+15,drg. Sadina Safitri,perempuan,"Kepulauan Riau, 09-11-1989",34,D4,"Brebes, Jawa Tengah, Jawa, 52122, Indonesia",-6.76340002,109.1378919,566,15,16,Full-time,Senin-Jumat,Pagi-Malam,148,Siang
5.60192E+15,Cahyono Pudjiastuti,perempuan,"Riau, 21-01-1987",36,SMA,"Karangcombong, Lebak, Banten, Indonesia",-6.628501471,106.2785822,60493,20,12,Full-time,Senin-Minggu,Siang-Sore,304,Pagi
7.45283E+15,Cahyanto Mahendra,laki-laki,"Lampung, 26-02-1981",42,SD,"Muktijaya, Kabupaten Bekasi, Jawa Barat, 17320, Indonesia",-6.389134875,107.0513513,15339,17,20,Employed,Senin-Jumat,Siang-Malam,259,Pagi
6.21914E+15,Mila Rahimah,perempuan,"Kalimantan Barat, 26-12-1964",59,SMP,"Jawa Tengah, Jawa, Indonesia",-6.737448649,109.8876418,43618,20,17,Self-Employed,Senin-Minggu,Pagi-Sore,260,Malam
6.92981E+15,Wirda Damanik,laki-laki,"Sulawesi Barat, 08-03-1994",29,S3,"Klumpit, Madiun, Jawa Timur, Indonesia",-7.550393591,111.558587,53627,3,17,Full-time,Sabtu-Minggu,Pagi-Sore,310,Malam
8.84274E+15,Kacung Anggraini,laki-laki,"Jawa Barat, 21-05-1969",54,SD,"Karangmalang, Doreng, Demak, Jawa Tengah, Jawa, 58165, Indonesia",-6.975708951,110.6824708,35248,2,2,Full-time,Senin-Jumat,Pagi-Sore,72,Malam
8.23235E+15,R.M. Hendri Andriani,laki-laki,"DKI Jakarta, 03-06-1991",32,D4,"Padas, Madiun, Jawa Timur, Indonesia",-7.756623978,111.6414184,84940,18,14,Part-time,Senin-Jumat,Siang-Sore,287,Pagi
6.92131E+15,Uli Saptono,laki-laki,"Papua Barat, 17-11-1996",27,S1,"Trek Merapi via Sapuangin, Tegalmulyo, Sidorejo, Kemalang, Klaten, Jawa Tengah, Jawa, 55583, Indonesia",-7.560775931,110.468746,90222,10,10,Part-time,Senin-Jumat,Siang-Sore,233,Pagi
7.07679E+15,Ibun Pranowo,perempuan,"Sumatera Utara, 15-11-1975",48,D4,"Sempu, Pacitan, Jawa Timur, Jawa, Indonesia",-7.992837436,111.2153176,68278,12,3,Self-Employed,Senin-Jumat,Pagi-Sore,307,Malam
9.08056E+15,Ivan Hartati,laki-laki,"Maluku, 23-07-1990",33,S2,"Ngaglik, Kasiman, Bojonegoro, Jawa Timur, 58312, Indonesia",-7.117192601,111.6310057,50561,17,20,Full-time,Senin-Jumat,Pagi-Siang,328,Sore
5.71825E+15,Laila Padmasari,perempuan,"Sulawesi Utara, 03-07-1970",53,SD,"Jawa Barat, Jawa, Indonesia",-7.922621447,108.6370349,90205,10,20,Full-time,Senin-Jumat,Pagi-Sore,72,Malam
2.21717E+15,R. Kani Hartati,laki-laki,"Kalimantan Timur, 18-09-1973",50,SMP,"Bojonegoro, Jawa Timur, Jawa, Indonesia",-7.359271018,111.5523202,60604,5,20,Employed,Senin-Jumat,Pagi-Malam,210,Siang
3.30857E+15,Dt. Nyoman Palastri,perempuan,"Lampung, 26-07-1995",28,D4,"Montong, Tuban, Jawa Timur, 62357, Indonesia",-6.926247049,111.9110554,32773,6,15,Employed,Senin-Jumat,Pagi-Sore,295,Malam
5.82941E+15,Aisyah Melani,perempuan,"Jawa Timur, 06-05-1970",53,SMA,"Jawa Tengah, Jawa, Indonesia",-6.520484075,111.414244,34783,11,3,Employed,Senin-Jumat,Pagi-Sore,70,Malam
7.68342E+15,Kacung Sirait,perempuan,"Sulawesi Utara, 21-02-1965",58,SMA,"Sragen, Jawa Tengah, Jawa, Indonesia",-7.287635167,110.8592725,81184,14,4,Employed,Senin-Jumat,Malam-Pagi,210,Siang
2.31608E+15,Dr. Elisa Hutagalung,laki-laki,"Banten, 02-10-1998",25,S3,"Karangbungur, Sumedang, Jawa Barat, Indonesia",-6.632383721,107.9139523,22600,13,20,Employed,Senin-Jumat,Pagi-Sore,237,Malam
3.18608E+15,Daliono Purwanti,laki-laki,"Kalimantan Selatan, 20-09-1989",34,SMA,"Loji, Sukabumi, Jawa Barat, Indonesia",-7.067697948,106.5914882,55236,2,16,Employed,Senin-Jumat,Pagi-Malam,36,Sore
8.38569E+15,Martaka Tarihoran,perempuan,"Jambi, 12-11-1974",49,SMA,"Jawa Tengah, Jawa, Indonesia",-6.592203112,109.0793154,18750,10,16,Employed,Senin-Jumat,Pagi-Malam,328,Sore
8.72062E+15,Lili Prasetyo,laki-laki,"Sumatera Barat, 26-06-1997",26,SMA,"Pamagersari, Bogor, Jawa Barat, Indonesia",-6.472294554,106.4716305,91252,8,7,Self-Employed,Senin-Jumat,Pagi-Sore,79,Malam
2.43626E+15,"Dr. Oni Mustofa, M.M.",perempuan,"Nusa Tenggara Timur, 14-05-1972",51,S2,"Banten, Jawa, Indonesia",-7.029712094,106.1604049,13418,17,14,Self-Employed,Senin-Jumat,Pagi-Sore,67,Malam
2.1611E+15,dr. Zaenab Pratiwi,perempuan,"Kalimantan Barat, 19-10-1967",56,S1,"Jawa Tengah, Jawa, Indonesia",-7.966381315,109.3749339,82893,19,7,Full-time,Senin-Jumat,Pagi-Sore,240,Malam
6.45162E+15,Cahyanto Waskita,laki-laki,"Jawa Timur, 06-07-1974",49,S1,"Kincang Wetan, Madiun, Jawa Timur, 63125, Indonesia",-7.615839753,111.4702748,86552,12,20,Full-time,Senin-Jumat,Pagi-Sore,223,Malam
4.17498E+15,"Cut Sari Prasetya, M.TI.",laki-laki,"Bali, 30-07-1972",51,D4,"Ciawi, Bogor, Jawa Barat, 16720, Indonesia",-6.760566769,106.9463931,70690,4,20,Employed,Senin-Jumat,Pagi-Sore,21,Malam
3.92065E+15,Dt. Wira Simbolon,perempuan,"Jambi, 28-08-2000",23,SMA,"Selomangu, Tenggulangharjo, Batang, Jawa Tengah, Jawa, 51271, Indonesia",-6.990767749,109.9072524,19237,7,13,Full-time,Senin-Minggu,Pagi-Sore,310,Malam
1.73252E+15,Atmaja Simanjuntak,perempuan,"Bengkulu, 07-08-1970",53,D4,"Cijemit, Jawa Barat, Indonesia",-7.057054469,108.5072135,94437,7,11,Full-time,Senin-Jumat,Pagi-Sore,125,Malam
8.1747E+15,"Ulva Saefullah, S.Pd",perempuan,"Sulawesi Selatan, 19-03-1998",25,S2,"Jawa Timur, Jawa, 63263, Indonesia",-7.474433842,111.1898167,19547,10,5,Part-time,Senin-Jumat,Pagi-Siang,182,Sore
1.62225E+15,Ratna Nurdiyanti,perempuan,"Kalimantan Barat, 07-01-1993",30,SMP,"Gembongan, Blitar, Jawa Timur, 64153, Indonesia",-7.995023407,112.0982007,41910,2,11,Employed,Senin-Jumat,Pagi-Sore,126,Malam
7.54316E+15,Lala Usamah,laki-laki,"Maluku, 31-03-1992",31,S2,"Jawa Tengah, Jawa, Indonesia",-6.359626223,109.1992411,54764,17,15,Part-time,Senin-Jumat,Pagi-Siang,251,Sore
5.56859E+15,"Ilyas Wahyudin, M.Farm",laki-laki,"Kalimantan Utara, 08-11-1992",31,D4,"Klumbeyan, Muntung, Temanggung, Jawa Tengah, Jawa, 56255, Indonesia",-7.25649008,110.0022781,85782,7,4,Employed,Senin-Jumat,Pagi-Sore,205,Malam
1.09213E+15,Vanesa Dongoran,perempuan,"Jambi, 23-04-1969",54,SMA,"Klakah, Klakahkasihan, Pati, Jawa Tengah, Jawa, Indonesia",-6.658343084,110.9372591,29211,16,19,Self-Employed,Senin-Jumat,Pagi-Sore,193,Malam
6.16998E+15,Ozy Yolanda,perempuan,"Kepulauan Riau, 25-09-1995",28,SMP,"Gunung Endut, Sukabumi, Jawa Barat, Jawa, Indonesia",-6.823927005,106.6606042,65162,14,10,Full-time,Senin-Minggu,Siang-Sore,324,Pagi
9.02779E+15,"Hasna Pratama, S.Kom",laki-laki,"Sulawesi Barat, 17-02-1994",29,SMP,"Karangrejo, Grobogan, Jawa Tengah, Jawa, Indonesia",-7.120552325,111.1978792,46429,19,13,Employed,Sabtu-Minggu,Malam-Pagi,18,Siang
6.83744E+15,"R. Ulva Wahyuni, S.Farm",perempuan,"Nusa Tenggara Timur, 04-11-1963",60,D3,"Garut, Jawa Barat, Indonesia",-7.575766052,107.7715592,60483,4,17,Employed,Senin-Jumat,Pagi-Sore,277,Malam
7.70363E+15,Iriana Prayoga,perempuan,"Kalimantan Timur, 25-09-1984",39,SMP,"Kedungtulup, Rembang, Jawa Tengah, Jawa, Indonesia",-6.823667562,111.2746401,45104,17,20,Full-time,Senin-Jumat,Pagi-Sore,265,Malam
7.77749E+15,Sutan Edi Halimah,perempuan,"Sumatera Selatan, 11-02-1993",30,D3,Address not found,-7.711602125,106.2252437,56253,19,19,Full-time,Senin-Jumat,Pagi-Sore,33,Malam
4.43182E+15,Yuliana Nasyidah,perempuan,"Kalimantan Barat, 23-03-1981",42,S1,"Karangsalam, Banyumas, Jawa Tengah, Jawa, 53192, Indonesia",-7.562114615,109.3128801,97657,12,6,Part-time,Senin-Jumat,Pagi-Siang,220,Malam
8.40041E+15,"Puti Maimunah Latupono, M.Ak",perempuan,"Kalimantan Tengah, 26-07-1962",61,SD,"Kedungdawa, Kabupaten Indramayu, Jawa Barat, Indonesia",-6.433251282,108.0287841,38291,18,16,Full-time,Senin-Minggu,Siang-Sore,349,Malam
9.11784E+15,"Laras Andriani, S.E.",perempuan,"Kalimantan Timur, 16-01-1989",34,SMA,"Pulung Merdiko, Ponorogo, Jawa Timur, Indonesia",-7.879229882,111.6139213,9243,13,2,Part-time,Senin-Jumat,Malam-Pagi,333,Sore
5.33313E+15,Daruna Hutasoit,laki-laki,"Sulawesi Utara, 13-04-1999",24,D3,"Lebak, Banten, Indonesia",-6.94124448,106.3300542,60851,3,19,Self-Employed,Senin-Jumat,Pagi-Sore,9,Malam
5.1675E+15,dr. Ilsa Budiman,perempuan,"Kalimantan Selatan, 28-03-1960",63,S2,"Klodan, Nganjuk, Jawa Timur, Indonesia",-7.774714071,111.8509397,84638,8,10,Employed,Senin-Jumat,Siang-Malam,353,Pagi
8.14712E+15,Drs. Lurhur Saefullah,perempuan,"Riau, 31-05-1976",47,SMA,"Jawa Timur, Jawa, Indonesia",-6.660454752,111.9469773,57147,16,14,Full-time,Senin-Minggu,Siang-Sore,335,Pagi
6.31406E+15,"R. Prasetyo Pangestu, S.Gz",laki-laki,"Sumatera Utara, 27-03-1982",41,SMP,"Panawa, Garut, Jawa Barat, Indonesia",-7.330213128,107.7176823,65464,11,20,Employed,Senin-Jumat,Malam-Pagi,219,Siang
5.9011E+15,Hasta Nababan,perempuan,"Kalimantan Selatan, 21-10-1983",40,S1,"Jawa Barat, Jawa, Indonesia",-7.610682623,106.6358643,71502,14,15,Part-time,Senin-Minggu,Sore-Malam,148,Siang
1.11353E+15,"Cut Lala Firgantoro, S.Gz",perempuan,"Sulawesi Utara, 15-01-1982",41,SD,"Kebakalan, Kebumen, Jawa Tengah, Jawa, 54353, Indonesia",-7.586363745,109.6691206,87265,9,1,Part-time,Senin-Minggu,Sore-Malam,293,Pagi
6.80852E+15,Cengkir Mandasari,perempuan,"Bali, 05-01-1967",56,SMP,"Jatibarang, Brebes, Jawa Tengah, Jawa, Indonesia",-6.964965136,109.0541495,4806,3,2,Employed,Senin-Jumat,Siang-Sore,165,Pagi
6.8919E+15,"dr. Diah Purwanti, M.Farm",laki-laki,"Kalimantan Timur, 16-05-1960",63,SMP,"Jawa Tengah, Jawa, Indonesia",-6.435341527,111.1432954,85719,1,3,Full-time,Senin-Jumat,Pagi-Sore,55,Malam
2.41407E+15,Eka Anggraini,perempuan,"Maluku, 29-02-1992",31,SMA,"Parakanhonje, Tasikmalaya, Jawa Barat, Indonesia",-7.601180511,108.1063656,15239,8,11,Employed,Senin-Jumat,Pagi-Sore,85,Malam
3.70111E+15,Cahyanto Samosir,laki-laki,"DKI Jakarta, 26-09-1979",44,SMA,"Jawa Tengah, Jawa, Indonesia",-6.4461786,110.6840031,79505,20,13,Employed,Senin-Jumat,Pagi-Malam,40,Siang
3.74204E+15,Uli Prabowo,perempuan,"Jambi, 16-12-1987",36,D4,"Jawa Barat, Jawa, Indonesia",-6.746821896,108.7577476,60175,12,5,Full-time,Senin-Jumat,Siang-Sore,128,Pagi
6.60385E+15,"Balangga Kusumo, S.Psi",laki-laki,"Bali, 08-09-1982",41,SMP,"SUMBER, Rembang, Jawa Tengah, Jawa, Indonesia",-6.808963341,111.2619938,77669,12,17,Full-time,Senin-Jumat,Siang-Malam,67,Pagi
8.2244E+15,Prasetya Saefullah,perempuan,"Kalimantan Selatan, 16-09-1986",37,SMA,"Susukan, Cianjur, Jawa Barat, Jawa, Indonesia",-6.964957382,107.1150408,62341,6,3,Employed,Senin-Minggu,Siang-Sore,90,Malam
9.3541E+15,drg. Adiarja Nashiruddin,laki-laki,"Nusa Tenggara Barat, 30-11-1999",24,SMA,"Pananggapan, Cianjur, Jawa Barat, Indonesia",-7.345183068,107.1190331,94456,18,11,Full-time,Senin-Jumat,Pagi-Sore,9,Malam
8.86904E+15,Ir. Pangestu Sitorus,perempuan,"Maluku, 11-07-1996",27,SMA,"RW 01 DESA CIGANJENG, Ciganjeng, Pangandaran, Jawa Barat, Jawa, Indonesia",-7.575026686,108.7258215,33102,8,18,Part-time,Senin-Jumat,Siang-Sore,172,Pagi
1.55494E+15,dr. Yahya Wibowo,laki-laki,"Sulawesi Tengah, 31-07-1963",60,S1,"Wirosari, Grobogan, Jawa Tengah, Jawa, 58192, Indonesia",-7.069782923,111.0982698,9777,1,15,Self-Employed,Senin-Jumat,Pagi-Sore,18,Malam
1.20449E+15,"Tami Natsir, S.E.",perempuan,"Nusa Tenggara Timur, 21-08-1989",34,SMA,"Taraju, Tasikmalaya, Jawa Barat, Indonesia",-7.47715373,107.9635304,40032,15,19,Full-time,Senin-Jumat,Malam-Pagi,310,Siang
9.86759E+15,Putri Winarno,perempuan,"Aceh, 25-04-1967",56,S2,"Paten, Rowosari, Batang, Jawa Tengah, Jawa, 51271, Indonesia",-6.994404454,109.9333451,84814,16,6,Employed,Senin-Jumat,Pagi-Sore,216,Malam
1.66994E+15,"Drs. Siska Pertiwi, S.Psi",perempuan,"Sumatera Barat, 30-10-1966",57,SMA,"Jalan Tol Jakartaâ€“Cikampek II, Desa Tamansari, Jawa Barat, Jawa, Indonesia",-6.431596437,107.3243782,59378,11,14,Full-time,Sabtu-Minggu,Siang-Sore,319,Pagi
5.95645E+15,"Puti Cornelia Latupono, M.M.",perempuan,"Kepulauan Riau, 04-07-1984",39,S2,"Banten, Jawa, Indonesia",-7.16090785,105.9615835,45692,19,2,Full-time,Senin-Jumat,Sore-Malam,306,Siang
6.71823E+15,Talia Kurniawan,perempuan,"Bengkulu, 08-05-1960",63,SMA,"Jawa Tengah, Jawa, Indonesia",-6.655058778,110.0280644,70037,15,9,Self-Employed,Senin-Jumat,Sore-Malam,226,Siang
1.89791E+15,Pangestu Hardiansyah,laki-laki,"Sulawesi Selatan, 14-11-1971",52,D4,"Jawa Tengah, Jawa, Indonesia",-7.880725077,109.746259,26043,7,7,Full-time,Senin-Jumat,Malam-Pagi,280,Pagi
4.37303E+15,Eman Prasasta,laki-laki,"Sulawesi Utara, 30-12-1982",41,SMA,"Mantingan, Magelang, Jawa Tengah, Jawa, 56483, Indonesia",-7.631309207,110.3138216,623,4,6,Employed,Senin-Jumat,Pagi-Sore,113,Malam
7.58803E+15,Tgk. Daliman Susanti,laki-laki,"Riau, 12-12-1975",48,D4,"Jawa Barat, Jawa, Indonesia",-7.858800527,108.1145575,43987,9,2,Employed,Senin-Jumat,Siang-Sore,102,Pagi
7.27833E+15,Titin Samosir,laki-laki,"Sumatera Utara, 23-12-1964",59,SMA,"DUSUN CININDA, Layabakti, Tasikmalaya, Jawa Barat, Indonesia",-7.438987955,108.078228,94424,12,13,Self-Employed,Senin-Jumat,Malam-Pagi,121,Siang
3.70457E+15,"Raihan Usada, M.Pd",laki-laki,"Nusa Tenggara Barat, 12-02-1973",50,SD,"Garut, Jawa Barat, Indonesia",-7.565718029,107.7318219,74431,18,9,Full-time,Senin-Jumat,Sore-Malam,312,Pagi
9.16763E+15,Jelita Tarihoran,perempuan,"Maluku, 19-01-1989",34,S1,"Jalan Salam Permai, Cianjur, Jawa Barat, Jawa, 43211, Indonesia",-6.826544872,107.1259702,63013,4,5,Full-time,Senin-Jumat,Pagi-Sore,169,Malam
2.75886E+15,Dr. Hafshah Andriani,laki-laki,"Maluku, 24-12-1965",58,D4,"Pagongsoran, Pemalang, Jawa Tengah, Jawa, 52361, Indonesia",-6.969646427,109.3827227,45593,15,11,Self-Employed,Senin-Jumat,Siang-Sore,39,Pagi
3.08184E+15,"H. Opung Mustofa, S.I.Kom",perempuan,"Papua Barat, 17-04-1972",51,S2,"Muara, Lebak, Banten, Indonesia",-6.780636779,105.9287741,45516,17,7,Self-Employed,Senin-Jumat,Siang-Sore,45,Pagi
4.73812E+15,Salwa Sitorus,laki-laki,"Sulawesi Utara, 02-04-1991",32,D4,"Jawa Tengah, Jawa, Indonesia",-6.355650426,110.300751,20515,5,14,Full-time,Senin-Jumat,Pagi-Malam,264,Siang
8.92059E+15,Lamar Hardiansyah,perempuan,"Sulawesi Selatan, 16-06-1995",28,S1,"Ciherang, Ciomas, Bogor, Jawa Barat, Jawa, 16117, Indonesia",-6.60398771,106.7440135,74644,4,15,Self-Employed,Senin-Jumat,Pagi-Siang,215,Sore
6.0476E+15,Iriana Winarno,perempuan,"Nusa Tenggara Barat, 12-03-1980",43,S3,"Mojolali, Krandan, Pati, Jawa Tengah, Jawa, 25029, Indonesia",-6.652852834,111.0843547,6755,12,17,Employed,Senin-Jumat,Pagi-Sore,277,Malam
4.72016E+15,"Rachel Puspasari, S.Pt",perempuan,"Papua Barat, 03-08-1966",57,SMP,"Banten, Jawa, Indonesia",-7.108019232,105.9058293,46746,3,17,Employed,Senin-Jumat,Pagi-Sore,303,Malam
2.02958E+15,"Prabu Rajasa, S.H.",perempuan,"Kalimantan Tengah, 11-06-1966",57,SMA,"Banten, Jawa, Indonesia",-7.24377645,106.0738936,33453,17,4,Part-time,Senin-Jumat,Sore-Malam,286,Siang
6.63801E+15,"Drs. Waluyo Mangunsong, S.Sos",perempuan,"Kepulauan Riau, 21-02-1973",50,S1,"Gentan, Tukang, Semarang, Jawa Tengah, Jawa, Indonesia",-7.309982742,110.5813333,46112,3,4,Self-Employed,Senin-Jumat,Pagi-Siang,309,Malam
7.13769E+15,Ajeng Oktaviani,laki-laki,"Sulawesi Tenggara, 24-09-1960",63,SMA,"Jawa Tengah, Jawa, Indonesia",-6.775776048,109.1851006,41641,7,16,Self-Employed,Senin-Jumat,Pagi-Siang,325,Malam
9.91576E+15,Viman Hariyah,perempuan,"Kalimantan Barat, 21-12-1973",50,SMP,"Bulak, Jawa Barat, 45162, Indonesia",-6.658517834,108.4384433,28937,13,9,Self-Employed,Senin-Jumat,Sore-Malam,176,Siang
5.86345E+15,Talia Suryono,perempuan,"Sulawesi Selatan, 23-09-1995",28,SMP,"Pasir Tanjung, Tanjungsari, Bogor, Jawa Barat, Indonesia",-6.603898138,107.1246344,39806,12,14,Full-time,Senin-Minggu,Pagi-Sore,263,Malam
6.09144E+15,Ani Lailasari,perempuan,"DI Yogyakarta, 04-08-1971",52,S1,"Bitingan, Banjarnegara, Jawa Tengah, Jawa, 53456, Indonesia",-7.179503167,109.8875178,51523,14,19,Employed,Senin-Jumat,Pagi-Siang,278,Sore
9.91567E+15,Daliono Maheswara,perempuan,"Jawa Tengah, 28-05-1967",56,S1,"Jawa Barat, Jawa, Indonesia",-7.918745372,108.3140609,43739,16,18,Self-Employed,Senin-Jumat,Pagi-Malam,102,Siang
6.82335E+15,Harjo Waskita,perempuan,"Riau, 16-04-1977",46,SMP,"Tlogourang, Blimbing, Kendal, Jawa Tengah, Jawa, 51381, Indonesia",-7.116301855,110.266925,10715,9,10,Full-time,Senin-Jumat,Pagi-Sore,309,Malam
2.18216E+15,Purwadi Winarsih,perempuan,"Lampung, 28-07-1977",46,SMA,Address not found,-7.948428893,106.8852934,2079,1,17,Part-time,Senin-Jumat,Sore-Malam,86,Siang
2.41313E+15,Eka Prakasa,laki-laki,"Sulawesi Selatan, 17-12-1968",55,SMP,"Bangsri, Jombang, Jawa Timur, Jawa, Indonesia",-7.454278505,112.1797635,13805,6,12,Full-time,Senin-Jumat,Pagi-Sore,179,Malam
6.59693E+15,Ella Suryatmi,laki-laki,"Papua Barat, 01-03-1962",61,S1,"Kantor Kelurahan Rajawetan, Jalan Raya Balapulang-Margasari, Banjaranyar, Tegal, Jawa Tengah, Jawa, 52464, Indonesia",-7.134657339,109.0792581,41367,11,9,Self-Employed,Senin-Jumat,Malam-Pagi,92,Pagi
3.42803E+15,Ifa Thamrin,laki-laki,"Sumatera Selatan, 16-06-1962",61,SD,"Ngadiluwih, Karanganyar, Jawa Tengah, Jawa, 57141, Indonesia",-7.636918204,110.998348,18630,16,4,Full-time,Senin-Jumat,Malam-Pagi,242,Siang
1.19067E+15,Lanjar Purnawati,perempuan,"Kalimantan Tengah, 31-07-1990",33,S1,"Karangasem, Sukoharjo, Jawa Tengah, Jawa, 57652, Indonesia",-7.751325437,110.840106,96522,1,9,Employed,Senin-Jumat,Pagi-Sore,107,Malam
7.10391E+15,Jagaraga Jailani,laki-laki,"Kepulauan Bangka Belitung, 29-12-1976",47,S1,"Bogor Selatan, Bogor, Jawa Barat, 16136, Indonesia",-6.657534581,106.7879287,949,2,18,Part-time,Senin-Jumat,Siang-Sore,145,Pagi
1.0824E+15,"Widya Ramadan, M.Pd",perempuan,"Gorontalo, 28-12-1987",36,SMA,"Banten, Jawa, Indonesia",-7.063668559,105.9065212,44602,9,13,Full-time,Senin-Minggu,Pagi-Sore,227,Malam
9.81796E+15,Bambang Widodo,laki-laki,"Banten, 23-01-1967",56,D4,"Jawa Timur, Jawa, Indonesia",-6.606084662,111.8568767,69335,8,2,Self-Employed,Sabtu-Minggu,Pagi-Sore,172,Malam
8.13763E+15,Hj. Vanesa Nuraini,perempuan,"Sulawesi Utara, 24-04-1995",28,D4,"Kertasari, Tasikmalaya, Jawa Barat, Indonesia",-7.704329076,108.0987866,99397,19,16,Employed,Senin-Jumat,Pagi-Sore,286,Malam
4.55136E+15,Sutan Cakrabirawa Dongoran,perempuan,"Papua Barat, 23-08-1996",27,S1,"Pangandaran, Jawa Barat, Indonesia",-7.599792355,108.553431,66962,19,10,Employed,Senin-Jumat,Pagi-Siang,332,Sore
7.5017E+15,"H. Sakti Tampubolon, S.Pd",perempuan,"Sulawesi Tengah, 14-12-1991",32,SMA,"Kadumanis, Brebes, Jawa Tengah, Jawa, Indonesia",-7.195545448,108.8818653,57033,2,3,Full-time,Senin-Jumat,Pagi-Sore,212,Malam
3.09713E+15,"Ami Yolanda, S.Pd",perempuan,"Sumatera Barat, 22-06-1970",53,SMA,"Kp. Parakan Badak, Jawa Barat, Indonesia",-6.546484182,107.2460942,50573,8,5,Employed,Senin-Jumat,Malam-Pagi,290,Sore
9.46802E+15,Padma Lazuardi,perempuan,"Kalimantan Utara, 12-11-1996",27,S2,"Jalan Bojong Koneng, 17, Cipada, Bandung Barat, Jawa Barat, Indonesia",-6.796834001,107.5180793,25439,2,14,Employed,Senin-Jumat,Pagi-Sore,18,Malam
5.5285E+15,"Kenzie Dongoran, S.Pt",perempuan,"Gorontalo, 02-07-1998",25,D3,"Sukabumi, Jawa Barat, Indonesia",-6.982193785,106.8160149,99688,8,14,Employed,Senin-Jumat,Pagi-Sore,195,Malam
7.04797E+15,"drg. Ika Kusumo, S.Pd",laki-laki,"Sulawesi Utara, 17-06-1991",32,D3,"Wonogiri, Jawa Tengah, Jawa, Indonesia",-7.869693992,110.8366984,61037,19,1,Part-time,Senin-Jumat,Pagi-Siang,10,Sore
4.81474E+15,"Danuja Nainggolan, S.I.Kom",laki-laki,"Jawa Barat, 28-04-1966",57,S2,"Weru, Sukoharjo, Jawa Tengah, 57562, Indonesia",-7.772633017,110.7518468,65030,14,2,Full-time,Senin-Jumat,Pagi-Sore,7,Malam
3.83429E+15,Kacung Damanik,perempuan,"Jambi, 20-07-1965",58,S2,"Kendalrejo, Pemalang, Jawa Tengah, Indonesia",-6.806662942,109.4923578,68868,18,12,Employed,Senin-Minggu,Pagi-Malam,308,Sore
7.78562E+15,"Oliva Mulyani, M.Kom.",perempuan,"Sumatera Selatan, 08-02-1989",34,D4,"Cirukem, Jawa Barat, 45514, Indonesia",-7.017865486,108.511139,4779,9,7,Self-Employed,Senin-Jumat,Siang-Sore,162,Malam
1.85827E+15,Sutan Jaiman Narpati,laki-laki,"Sulawesi Utara, 25-03-1995",28,SMA,"Cerme, Boyolali, Jawa Tengah, Jawa, Indonesia",-7.172662773,110.742401,24576,12,19,Employed,Senin-Minggu,Pagi-Sore,322,Malam
7.31557E+15,KH. Balapati Puspita,laki-laki,"Aceh, 09-08-1998",25,D3,"Jawa Tengah, Jawa, Indonesia",-6.777516076,109.430669,69057,10,20,Full-time,Senin-Minggu,Siang-Malam,59,Pagi
5.60912E+15,"Violet Widiastuti, S.Gz",perempuan,"Nusa Tenggara Barat, 05-07-1967",56,SD,"Daleman, Tinanding, Grobogan, Jawa Tengah, Jawa, 58164, Indonesia",-7.04772349,110.679663,45945,18,20,Full-time,Senin-Jumat,Pagi-Siang,21,Sore
2.7552E+15,"Eka Puspita, S.Psi",perempuan,"Jawa Timur, 31-07-1975",48,S1,"Jayasari, Pangandaran, Jawa Barat, 46392, Indonesia",-7.547564628,108.3570661,18178,11,16,Employed,Senin-Jumat,Siang-Sore,42,Pagi
5.1057E+15,"Cut Widya Prastuti, S.Pd",perempuan,"Kepulauan Bangka Belitung, 29-01-1993",30,SMA,"Kaliagung, Sentolo, Kulon Progo, Daerah Istimewa Yogyakarta, Jawa, 55651, Indonesia",-7.838161469,110.1938934,95064,15,1,Employed,Senin-Jumat,Pagi-Siang,14,Sore
7.93809E+15,Endah Anggraini,perempuan,"Jawa Tengah, 17-01-1964",59,S2,"Grogol, Sukoharjo, Jawa Tengah, Jawa, 57552, Indonesia",-7.604513757,110.8192058,19833,4,20,Employed,Senin-Jumat,Pagi-Sore,311,Malam
8.42416E+15,"Hilda Marpaung, S.T.",laki-laki,"Jawa Barat, 13-07-1965",58,SMA,"Sukoharjo, Jawa Tengah, Jawa, 57464, Indonesia",-7.689418323,110.7683795,39928,8,14,Self-Employed,Senin-Jumat,Siang-Malam,66,Pagi
4.88631E+15,"T. Heru Purnawati, M.Ak",perempuan,"Sumatera Utara, 28-03-1961",62,SMA,"Jawa Tengah, Jawa, Indonesia",-6.302447555,110.555669,60983,12,19,Part-time,Senin-Jumat,Siang-Sore,320,Pagi
7.65851E+15,"drg. Warsa Wijaya, M.M.",perempuan,"DI Yogyakarta, 11-08-1980",43,SMA,"Mangkonjaya, Tasikmalaya, Jawa Barat, Indonesia",-7.533864941,107.9869685,43719,16,20,Employed,Senin-Minggu,Siang-Sore,50,Malam
6.39925E+15,Unggul Yuniar,laki-laki,"Jawa Tengah, 26-05-1974",49,D4,"Jalan Utama Desa, Pangandaran, Jawa Barat, Indonesia",-7.511156741,108.4423225,12070,7,5,Employed,Senin-Jumat,Pagi-Sore,280,Malam
4.8218E+15,Hartana Yuliarti,perempuan,"DKI Jakarta, 21-06-1971",52,S1,"Jawa Tengah, Jawa, Indonesia",-6.350090434,110.6722051,46658,3,17,Self-Employed,Senin-Minggu,Pagi-Sore,204,Malam
1.3521E+15,"Dr. Padmi Farida, M.Kom.",perempuan,"Papua Barat, 11-02-1963",60,S1,"Sadawarna, Jawa Barat, Indonesia",-6.594329661,107.8380477,64083,17,20,Part-time,Senin-Minggu,Pagi-Siang,297,Sore
4.06177E+15,Umi Laksita,laki-laki,"Kepulauan Riau, 01-04-1973",50,SMP,"Jawa Tengah, Jawa, Indonesia",-7.942746201,109.7568055,77167,6,20,Full-time,Senin-Jumat,Siang-Sore,66,Malam
3.10131E+15,Melinda Maulana,laki-laki,"Aceh, 05-06-1998",25,SMA,"Lamongan, Jawa Timur, Indonesia",-6.917809036,112.2454203,90296,11,11,Retired,,,46,Siang
4.22943E+15,Lintang Pratama,laki-laki,"Banten, 28-01-1961",62,SMA,"Garung Kidul, Kudus, Jawa Tengah, Jawa, 59332, Indonesia",-6.813097532,110.7940748,52038,6,20,Self-Employed,Senin-Jumat,Sore-Malam,44,Siang
4.29923E+15,Uli Susanti,perempuan,"Kalimantan Selatan, 05-07-1982",41,S2,"Cibatu, Kabupaten Bekasi, Jawa Barat, Jawa, 17530, Indonesia",-6.330442422,107.162029,96178,10,5,Self-Employed,Senin-Minggu,Pagi-Sore,148,Malam
3.52377E+15,"Paramita Farida, M.Kom.",perempuan,"Sulawesi Utara, 09-10-1989",34,S2,"Tarumajaya, Bandung, Jawa Barat, Indonesia",-7.209491366,107.6729888,43052,4,9,Self-Employed,Senin-Jumat,Pagi-Sore,196,Malam
5.68851E+15,Maimunah Suryatmi,perempuan,"Sulawesi Tenggara, 08-04-1976",47,S1,"Girijaya, Sukabumi, Jawa Barat, Indonesia",-6.833063814,106.8715377,37094,10,8,Employed,Senin-Jumat,Malam-Pagi,175,Siang
3.12019E+15,Perkasa Yuniar,laki-laki,"Kepulauan Bangka Belitung, 21-05-1960",63,SMA,"Jawa Tengah, Jawa, Indonesia",-6.68112268,109.4053321,177,15,12,Full-time,Senin-Jumat,Pagi-Sore,318,Malam
6.57319E+15,"Dr. Eva Nurdiyanti, S.Pt",laki-laki,"Sumatera Utara, 07-09-1994",29,SMA,Address not found,-7.735574846,106.2027509,65599,16,8,Full-time,Senin-Jumat,Siang-Malam,310,Pagi
3.42187E+15,Sakura Pradipta,perempuan,"Sulawesi Tengah, 27-03-1985",38,SMA,"Sukasirnarasa, Sumedang, Jawa Barat, 45365, Indonesia",-6.861439045,107.8289097,2383,17,20,Employed,Senin-Jumat,Pagi-Sore,340,Malam
3.09584E+15,"Cakrawala Gunarto, S.Gz",laki-laki,"Riau, 27-04-1999",24,S1,"Jetis, Madiun, Jawa Timur, Indonesia",-7.711909657,111.5666635,87454,4,2,Employed,Senin-Jumat,Sore-Malam,42,Pagi
2.24909E+15,Victoria Wibowo,laki-laki,"Sulawesi Utara, 11-05-1973",50,S2,"Mekarsari, Cianjur, Jawa Barat, Jawa, 43266, Indonesia",-7.208753212,107.079491,717,19,18,Full-time,Senin-Minggu,Pagi-Siang,322,Sore
6.80998E+15,Dr. Usyi Saptono,perempuan,"Jawa Timur, 16-05-1978",45,SMP,"Margaluyu, Bandung Barat, Jawa Barat, 40554, Indonesia",-6.783179817,107.3084494,16255,4,12,Part-time,Senin-Jumat,Siang-Sore,127,Malam
1.55733E+15,Cahyono Mandala,perempuan,"Sulawesi Barat, 07-07-1977",46,S1,"Kampung Laut, Cilacap, Jawa Tengah, Jawa, Indonesia",-7.706160499,108.7944128,47756,13,9,Full-time,Senin-Jumat,Pagi-Sore,75,Malam
2.14085E+15,Marsudi Prayoga,perempuan,"Nusa Tenggara Timur, 23-09-1980",43,SMA,"Jonggol, Bogor, Jawa Barat, Indonesia",-6.586233333,107.0282054,30700,3,17,Employed,Senin-Jumat,Pagi-Sore,200,Malam
5.94345E+15,"R.M. Luthfi Safitri, S.Sos",laki-laki,"Gorontalo, 05-01-1993",30,S3,"Jawa Tengah, Jawa, Indonesia",-6.71398164,109.4825134,87202,16,10,Part-time,Senin-Jumat,Malam-Pagi,142,Siang
3.49984E+15,Victoria Gunawan,laki-laki,"Sulawesi Tengah, 15-12-1996",27,S1,"Kripik, Demak, Jawa Tengah, Jawa, Indonesia",-6.77867872,110.5430473,39324,8,14,Self-Employed,Senin-Jumat,Pagi-Sore,196,Malam
3.34964E+15,Ratna Firgantoro,perempuan,"Gorontalo, 11-06-1970",53,SMA,"Jawa Timur, Jawa, Indonesia",-6.610927285,112.3669992,16263,7,9,Full-time,Senin-Minggu,Siang-Sore,98,Pagi
1.69516E+15,Lili Kurniawan,perempuan,"Sulawesi Tenggara, 24-07-1992",31,S1,"Jawa Tengah, Jawa, Indonesia",-6.544376739,111.3563912,14877,19,20,Employed,Senin-Jumat,Pagi-Sore,280,Malam
1.41467E+15,R.M. Omar Mangunsong,laki-laki,"Kalimantan Utara, 14-03-1989",34,S1,"Jawa Tengah, Jawa, Indonesia",-6.676689309,109.6481351,20996,7,10,Self-Employed,Senin-Minggu,Pagi-Malam,294,Sore
8.94866E+15,Laswi Marbun,laki-laki,"Jambi, 20-04-1979",44,SMA,"Karyawangi, Bandung Barat, Jawa Barat, 40551, Indonesia",-6.774716909,107.6062536,53738,9,3,Full-time,Senin-Jumat,Pagi-Siang,93,Malam
1.26347E+15,Luhung Nashiruddin,laki-laki,"Papua, 20-08-1982",41,SMA,Address not found,-7.957772148,106.4110184,57154,11,8,Self-Employed,Senin-Jumat,Siang-Sore,54,Pagi
3.35019E+15,"Gatra Budiyanto, S.Farm",perempuan,"Bengkulu, 21-01-1965",58,D3,"Banten, Jawa, Indonesia",-6.963952341,106.0653165,67662,17,12,Full-time,Senin-Jumat,Pagi-Malam,302,Siang
2.33331E+15,Mila Puspasari,perempuan,"DKI Jakarta, 20-09-1961",62,S2,"Soko, Tuban, Jawa Timur, Indonesia",-7.135956531,111.9732649,26383,14,4,Employed,Senin-Jumat,Malam-Pagi,120,Sore
3.10076E+15,Dimas Siregar,laki-laki,"Lampung, 11-06-1979",44,S3,"Cibulan, Majalengka, Jawa Barat, 45465, Indonesia",-7.016854754,108.2021839,29052,2,16,Full-time,Senin-Jumat,Malam-Pagi,244,Siang
1.27486E+15,Karya Melani,laki-laki,"Sulawesi Barat, 14-06-1985",38,S2,"Jawa Tengah, Jawa, Indonesia",-6.326571857,109.7255342,20767,2,11,Retired,,,41,Pagi
8.44517E+15,"Caraka Gunarto, S.Pd",laki-laki,"Aceh, 03-11-1991",32,SMA,"Jalan Rasamala, Bunikasih, Cianjur, Jawa Barat, Jawa, 43261, Indonesia",-6.847541424,107.0367998,41445,15,18,Self-Employed,Senin-Minggu,Pagi-Malam,148,Sore
4.41831E+15,Mala Pangestu,laki-laki,"Papua, 16-09-1992",31,S1,"Ngulahan, Tuban, Jawa Timur, Indonesia",-6.876036667,111.7367885,43867,2,5,Retired,,,338,Siang
6.2808E+15,Drs. Asmianto Pradana,laki-laki,"Sulawesi Tenggara, 17-08-1970",53,D4,"Girimukti, Sukabumi, Jawa Barat, Indonesia",-7.110550994,106.5150652,22775,13,16,Self-Employed,Senin-Jumat,Siang-Sore,18,Malam
3.80324E+15,Dt. Eman Hutasoit,laki-laki,"Jawa Tengah, 02-10-1985",38,SMA,"Tawangsari, Jawa Barat, Indonesia",-6.759994697,108.7854446,66038,4,1,Full-time,Senin-Jumat,Siang-Sore,358,Pagi
3.04823E+15,dr. Jasmin Puspasari,laki-laki,"Sumatera Barat, 25-01-1994",29,SMA,"Jawa Tengah, Jawa, Indonesia",-6.430406077,111.174962,66713,11,18,Part-time,Senin-Jumat,Sore-Malam,270,Siang
3.07465E+15,Tgk. Victoria Wibisono,perempuan,"Kalimantan Barat, 22-11-1994",29,S1,"Kenduren, Demak, Jawa Tengah, Jawa, Indonesia",-6.80028538,110.6531514,72115,11,1,Part-time,Senin-Jumat,Siang-Sore,226,Pagi
5.58912E+15,Irnanto Salahudin,perempuan,"Nusa Tenggara Barat, 13-01-1966",57,D4,"Cijurey, Sukabumi, Jawa Barat, 43265, Indonesia",-6.995731749,106.9826859,54633,2,7,Full-time,Senin-Jumat,Pagi-Sore,330,Malam
8.66777E+15,"Harjasa Maryadi, S.Gz",perempuan,"Kalimantan Barat, 15-03-1985",38,D4,"Jalan Lintas Jabar Selatan, Kertajaya, Sukabumi, Jawa Barat, Jawa, Indonesia",-7.057067219,106.5752388,38660,1,12,Employed,Senin-Jumat,Pagi-Sore,246,Malam
9.5605E+15,Salsabila Permadi,laki-laki,"Kalimantan Barat, 12-03-1990",33,SMA,"Jawa Barat, Jawa, Indonesia",-6.380417662,108.8393957,91724,20,10,Full-time,Senin-Jumat,Malam-Pagi,234,Siang
8.99252E+15,"Jayadi Habibi, S.Psi",perempuan,"Kepulauan Riau, 09-07-1993",30,D3,"Lebakjabung, Jatirejo, Mojokerto, Jawa Timur, Jawa, Indonesia",-7.619181942,112.4047237,5979,7,8,Full-time,Senin-Jumat,Pagi-Sore,259,Malam
2.06404E+15,Restu Sihombing,perempuan,"Sulawesi Utara, 08-03-1986",37,S2,"Penakir, Pemalang, Jawa Tengah, Jawa, Indonesia",-7.191000509,109.2428435,19833,18,8,Part-time,Senin-Minggu,Sore-Malam,155,Siang
3.79394E+15,"KH. Simon Hardiansyah, S.Psi",perempuan,"Bengkulu, 02-04-1974",49,SMP,"Jawa Barat, Jawa, Indonesia",-7.77464052,107.2817568,35348,4,15,Part-time,Senin-Jumat,Sore-Malam,37,Siang
9.38452E+15,Danuja Mayasari,laki-laki,"Kalimantan Selatan, 30-10-1975",48,SMA,"Jawa Barat, Jawa, Indonesia",-7.509009123,106.564282,19963,5,3,Employed,Senin-Jumat,Pagi-Siang,259,Sore
8.06843E+15,"Puti Maimunah Kusumo, S.Pt",perempuan,"Maluku, 03-11-1964",59,S1,"Jawa Barat, Jawa, Indonesia",-7.760538668,107.2972289,41253,10,12,Self-Employed,Senin-Jumat,Pagi-Sore,125,Malam
6.14853E+15,Mustofa Dabukke,perempuan,"Gorontalo, 05-10-1972",51,S2,"Jombang, Jawa Timur, Jawa, Indonesia",-7.40470584,112.0985496,10510,10,11,Full-time,Senin-Minggu,Pagi-Sore,190,Malam
