,num__collector_age,collector_gender,cat__collector_education_level_D-3,cat__collector_education_level_D-4,cat__collector_education_level_S-1,cat__collector_education_level_S-2,cat__collector_education_level_S-3,cat__collector_education_level_SD,cat__collector_education_level_SMA,cat__collector_education_level_SMP,collector_working_weekend,collector_working_workday,collector_working_holiday,collector_worktime_pagi,collector_worktime_sore,collector_worktime_malam,collector_latitude,collector_longitude,collector_name
0,0.5499999999999999,1,0,0,1,0,0,0,0,0,0,1,0,1,0,1,-7.786666,108.548818,Sean Strong
1,0.22499999999999998,0,0,0,0,0,0,0,1,0,0,1,1,1,1,0,-6.272861,111.762315,Heather Velez
2,0.975,1,0,0,0,0,0,0,1,0,0,1,0,0,1,1,-6.919858,110.277657,Andrew Murray II
3,0.7999999999999999,0,0,0,0,0,0,0,1,0,0,1,0,0,1,1,-7.081703,111.093481,Dr. Lee Torres
4,0.7500000000000001,0,0,0,0,0,0,1,0,0,0,1,1,0,1,1,-6.738981,106.942813,Sierra Richards
5,0.25,1,0,0,0,0,0,0,0,1,0,1,0,1,0,1,-8.205289,108.482585,Gary Robinson
6,0.275,0,0,0,0,0,0,0,0,1,0,1,0,0,1,1,-6.064466,113.853469,Daniel Berry
7,0.375,1,0,0,1,0,0,0,0,0,0,1,0,1,0,1,-7.68754,112.281672,Randall Hoffman
8,0.775,0,1,0,0,0,0,0,0,0,0,1,1,1,1,0,-6.715853,111.369728,Debbie Parker
9,0.4999999999999999,1,0,0,0,0,0,0,1,0,0,1,1,1,1,0,-6.39408,109.443674,Samantha James
10,0.5750000000000001,0,0,1,0,0,0,0,0,0,0,1,0,0,1,1,-6.15735,105.955645,Lauren Robertson
11,0.275,1,1,0,0,0,0,0,0,0,0,1,0,1,1,0,-6.347767,113.847195,Tara Osborne
12,0.22499999999999998,1,0,0,0,0,0,0,0,1,1,1,0,0,1,1,-6.479747,110.941788,Sean Harper
13,0.6250000000000001,1,1,0,0,0,0,0,0,0,0,1,1,0,1,1,-7.837748,108.741962,Kristina Avila
14,0.8750000000000001,1,0,0,0,0,0,1,0,0,0,1,0,1,1,0,-7.125792,107.247222,Carmen Stuart DDS
15,0.9,0,0,1,0,0,0,0,0,0,0,1,0,1,0,1,-8.214675,106.362369,Dawn Collins
16,0.29999999999999993,0,0,0,0,0,0,1,0,0,1,0,1,1,0,1,-8.279213,109.491541,Erin Harris
17,0.7999999999999999,0,1,0,0,0,0,0,0,0,0,1,1,1,1,0,-7.006863,107.428631,Kevin Rice
18,0.725,0,0,0,1,0,0,0,0,0,0,1,0,1,1,0,-7.76476,107.334885,Charles Ferrell
19,0.275,1,0,0,0,0,0,0,0,1,0,1,1,1,0,1,-6.501377,109.963118,David Olsen
20,0.17499999999999993,0,0,0,0,0,0,0,0,1,0,1,1,1,0,1,-6.496376,112.609439,Sheri Clarke
21,0.6749999999999999,0,0,0,0,0,0,1,0,0,0,1,1,1,1,0,-8.232836,111.848581,Andre Hawkins
22,0.775,0,0,0,0,0,0,1,0,0,0,1,0,1,1,0,-7.922139,110.694386,Brian Mcdonald
23,0.025000000000000022,1,0,0,1,0,0,0,0,0,0,1,1,1,1,0,-6.554809,110.286645,Rachel Smith
24,0.05,1,1,0,0,0,0,0,0,0,1,0,1,0,1,1,-6.493333,108.052259,Eric Chan
25,0.85,0,0,0,0,0,0,0,0,1,0,1,0,1,0,1,-8.159266,107.99886,Ashley Ponce
26,0.375,1,0,0,0,0,0,1,0,0,1,0,1,1,1,0,-7.848487,106.992642,Tanya Ortiz
27,0.975,0,1,0,0,0,0,0,0,0,0,1,0,1,0,1,-6.953164,113.907443,Ryan Perez
28,0.375,1,0,0,0,0,0,1,0,0,0,1,1,1,0,1,-7.16376,113.261168,Jennifer Medina
29,0.275,0,1,0,0,0,0,0,0,0,0,1,0,1,1,0,-7.195926,107.065669,Kelsey Brown
30,0.32499999999999996,0,0,0,0,0,0,0,1,0,1,1,0,1,1,0,-7.391552,107.449452,Mrs. Cheryl Wright MD
31,0.25,0,0,0,1,0,0,0,0,0,0,1,0,1,0,1,-7.13806,110.324566,Richard Santiago
32,0.9,0,1,0,0,0,0,0,0,0,0,1,1,0,1,1,-6.960219,109.045757,Edwin Crosby
33,0.35,0,1,0,0,0,0,0,0,0,0,1,0,1,0,1,-6.990643,110.496266,Matthew Mullins
34,0.075,1,0,0,1,0,0,0,0,0,0,1,1,0,1,1,-8.000332,111.563206,Cynthia Rodriguez DVM
35,0.525,0,0,0,1,0,0,0,0,0,0,1,0,1,1,0,-7.813559,108.129547,Monica Bright
36,0.775,0,0,0,0,0,0,0,1,0,0,1,1,0,1,1,-7.544858,110.85102,Bridget Campbell
37,0.1,1,0,0,0,0,0,0,1,0,0,1,1,0,1,1,-7.922272,112.997248,Angela Woods
38,0,0,0,0,0,0,0,0,0,1,0,1,1,0,1,1,-7.677661,106.638159,Amy Gibson
39,0.475,0,0,0,0,0,0,0,0,1,0,1,0,1,1,0,-6.45876,113.900486,Eric Love
40,0,0,0,0,1,0,0,0,0,0,0,1,1,1,0,1,-6.766852,106.763323,Stacy Austin
41,0.6749999999999999,1,0,0,1,0,0,0,0,0,0,1,0,1,1,0,-7.257314,111.283048,Billy Kaiser
42,0.025000000000000022,0,0,1,0,0,0,0,0,0,0,1,1,1,1,0,-7.424514,112.110764,Caleb Pierce
43,0.025000000000000022,1,0,0,0,0,0,1,0,0,0,1,1,0,1,1,-7.030145,112.931729,Lisa Booth
44,0.25,1,0,0,0,0,0,0,1,0,0,1,1,1,0,1,-6.602607,108.404674,Joe Lowery
45,0.45000000000000007,0,0,0,0,0,0,0,0,1,0,1,1,1,0,1,-7.902385,106.34445,George Thomas
46,0.7999999999999999,0,0,0,0,0,0,1,0,0,0,1,1,0,1,1,-6.38068,110.000377,Bobby Chen DDS
47,0.25,0,0,0,0,0,0,0,0,1,1,0,1,1,0,1,-6.456214,110.502646,Alex Garcia
48,0.25,1,1,0,0,0,0,0,0,0,0,1,1,1,0,1,-7.76423,106.51119,Dr. Lisa Armstrong
49,0.65,0,0,0,1,0,0,0,0,0,1,0,1,0,1,1,-8.005009,106.539741,Teresa Lopez
50,0.8250000000000001,1,0,0,0,0,0,0,0,1,1,1,0,1,0,1,-7.990114,111.105148,Gabrielle Ryan
51,0.6,1,0,1,0,0,0,0,0,0,1,1,0,1,1,0,-6.965342,107.577189,William Vang
52,0.775,0,1,0,0,0,0,0,0,0,1,1,0,1,0,1,-6.441318,113.76229,Joshua Little
53,0.5499999999999999,1,0,0,0,0,0,1,0,0,1,0,1,0,1,1,-6.909524,107.542485,Anthony Williams
54,0.15000000000000002,0,0,1,0,0,0,0,0,0,0,1,0,0,1,1,-8.036456,110.689789,Michelle Hill
55,0.35,0,0,0,0,0,0,1,0,0,1,0,1,1,0,1,-7.037286,110.416307,Joshua Arias
56,0.35,1,0,0,0,0,0,0,0,1,0,1,0,0,1,1,-6.447716,113.445829,Alan Roach
57,0.7500000000000001,1,1,0,0,0,0,0,0,0,1,0,1,0,1,1,-6.490414,108.111273,Kevin Williams
58,1,1,0,1,0,0,0,0,0,0,0,1,1,1,1,0,-6.437037,112.418769,Gabrielle Martinez
59,0.85,1,0,0,0,0,0,1,0,0,0,1,0,1,0,1,-7.172911,108.692163,Vincent Daniel
60,0.45000000000000007,1,0,0,0,0,0,1,0,0,0,1,1,1,0,1,-7.142736,108.315863,Christine Wells
61,0.7000000000000001,0,0,0,0,0,0,0,0,1,0,1,0,1,0,1,-6.176493,113.422526,Mary Williams
62,0.7000000000000001,1,0,0,0,0,0,1,0,0,0,1,0,1,1,0,-7.310965,112.967647,Corey Arnold
63,0.6,1,0,0,1,0,0,0,0,0,0,1,1,1,0,1,-6.841694,109.201939,Mrs. Gabriella Joyce
64,0.25,0,1,0,0,0,0,0,0,0,0,1,1,1,1,0,-8.106633,110.653616,Gina Bailey
65,0.9,0,0,0,0,0,0,1,0,0,0,1,1,0,1,1,-6.183507,106.229851,Renee Hamilton
66,0.29999999999999993,1,0,1,0,0,0,0,0,0,0,1,1,1,1,0,-6.095537,113.804263,Paul Pollard
67,0.15000000000000002,1,0,0,0,0,0,1,0,0,0,1,0,1,0,1,-7.108346,107.682496,Jill Clayton
68,0.5750000000000001,1,0,1,0,0,0,0,0,0,0,1,0,1,0,1,-6.770973,107.949369,Alexandra Russell
69,0.375,0,0,0,0,0,0,0,0,1,0,1,0,0,1,1,-8.262098,112.056722,Matthew Sullivan
70,0.32499999999999996,1,0,0,0,0,0,1,0,0,0,1,1,1,0,1,-6.071012,111.745148,Courtney Gordon
71,0.7999999999999999,0,0,0,1,0,0,0,0,0,0,1,1,0,1,1,-7.292519,107.237711,Sharon Fitzgerald
72,0.35,0,0,1,0,0,0,0,0,0,0,1,1,1,1,0,-6.742972,106.118879,Sarah Bates
73,0.65,1,0,0,0,0,0,0,0,1,1,1,0,1,0,1,-7.552604,106.83611,Jose Sanchez
74,0.29999999999999993,0,0,1,0,0,0,0,0,0,0,1,1,1,1,0,-7.05028,113.309297,Michael Walker
75,0.5750000000000001,0,0,0,0,0,0,1,0,0,1,0,1,1,0,1,-8.227554,109.859637,Natasha Ward
76,0.42499999999999993,1,0,0,0,0,0,0,1,0,0,1,0,1,0,1,-6.468068,106.920549,Brian Oneal
77,0.42499999999999993,0,1,0,0,0,0,0,0,0,0,1,1,0,1,1,-7.601464,109.785038,Cynthia Smith
78,0.29999999999999993,1,0,0,0,0,0,0,0,1,0,1,0,1,1,0,-7.428336,107.402572,Wanda Miranda
79,0.65,1,0,0,0,0,0,0,1,0,0,1,0,1,0,1,-6.578204,111.92014,Jacob Ryan
80,0.17499999999999993,0,0,0,0,0,0,0,1,0,0,1,1,0,1,1,-7.775806,112.637285,Stephanie Foster
81,0.8250000000000001,0,0,0,1,0,0,0,0,0,0,1,1,0,1,1,-7.825659,106.27051,Stephanie Nichols
82,0.05,0,0,0,0,0,0,0,0,1,1,0,1,0,1,1,-6.338455,112.260632,Kenneth Johnson
83,0.29999999999999993,0,1,0,0,0,0,0,0,0,0,1,1,0,1,1,-7.334199,112.709318,Zachary Ortiz
84,0.6749999999999999,1,0,0,1,0,0,0,0,0,0,1,1,0,1,1,-7.844165,113.278616,Richard Green MD
85,0,0,1,0,0,0,0,0,0,0,0,1,1,0,1,1,-7.533752,113.906872,David Peck
86,0.85,0,0,0,0,0,0,0,0,1,0,1,0,1,1,0,-6.003069,106.741168,Paul Carroll
87,0.65,1,0,1,0,0,0,0,0,0,0,1,1,1,1,0,-8.253985,106.281569,Christine Burns
88,0.375,0,0,0,0,0,0,1,0,0,0,1,0,1,0,1,-8.236677,111.357933,Kimberly Warner
89,0,0,0,0,0,0,0,1,0,0,0,1,0,0,1,1,-6.282923,107.092239,Deborah Watson
90,0.7500000000000001,1,0,1,0,0,0,0,0,0,1,1,0,1,0,1,-6.309242,112.956623,Sydney Farley
91,0.775,1,0,0,0,0,0,1,0,0,0,1,0,1,1,0,-6.682401,110.06669,Brandon Mcgee
92,0.375,1,0,0,0,0,0,0,0,1,0,1,1,1,1,0,-6.517504,107.753026,Jennifer Robbins
93,0.42499999999999993,0,0,0,0,0,0,1,0,0,1,0,1,1,1,0,-7.759765,112.374882,Ryan Lee
94,0.45000000000000007,1,0,0,1,0,0,0,0,0,0,1,0,1,1,0,-6.564084,107.307037,William Hawkins
95,0.7999999999999999,0,1,0,0,0,0,0,0,0,0,1,1,1,1,0,-6.110348,109.528728,Brett Martinez
96,1,1,0,0,0,0,0,1,0,0,0,1,0,1,1,0,-7.594584,111.545242,Leroy Martinez
97,0.525,0,0,0,0,0,0,0,1,0,0,1,1,1,0,1,-6.537104,108.532347,Rachel Saunders
98,0.9249999999999999,1,0,0,0,0,0,0,1,0,1,0,1,0,1,1,-7.093297,112.1309,Brittany Huber
99,0.025000000000000022,1,0,0,0,0,0,1,0,0,0,1,0,1,0,1,-7.071487,109.656786,Natasha Miller
100,0.075,1,0,0,0,0,0,1,0,0,0,1,0,1,1,0,-6.736292,109.778865,Jessica Chang
101,0.8250000000000001,0,0,0,0,0,0,0,0,1,1,0,1,1,0,1,-6.967635,110.35483,Steven Ryan
102,0.6250000000000001,1,0,0,0,0,0,0,1,0,0,1,0,1,1,0,-7.891302,109.589393,Michael Smith
103,0.4,0,0,0,0,0,0,0,0,1,1,1,0,1,0,1,-6.545743,111.313865,Joshua Lopez
104,0.42499999999999993,1,0,0,0,0,0,1,0,0,0,1,0,1,0,1,-7.142494,110.008525,Katherine Garcia
105,0.7999999999999999,1,1,0,0,0,0,0,0,0,0,1,1,1,0,1,-8.051785,106.327763,Heather Guerra
106,0.8250000000000001,0,1,0,0,0,0,0,0,0,1,0,1,1,0,1,-7.282857,111.457819,Nicholas Brooks
107,0.975,0,1,0,0,0,0,0,0,0,0,1,1,0,1,1,-7.08204,113.785771,Robert Gamble
108,0.375,1,0,0,0,0,0,0,1,0,0,1,0,0,1,1,-7.507336,106.364104,William Barr
109,0.42499999999999993,0,1,0,0,0,0,0,0,0,0,1,1,1,1,0,-7.619202,109.328806,Kyle Brown
110,0.15000000000000002,0,0,0,0,0,0,0,1,0,1,0,1,0,1,1,-7.060305,108.650222,Lindsay Cook
111,0.6250000000000001,1,0,0,0,0,0,0,1,0,0,1,0,1,0,1,-8.117876,108.36461,Ronald Cannon
112,0.15000000000000002,1,0,0,0,0,0,0,0,1,0,1,1,0,1,1,-7.82293,107.556254,Brenda Campbell
113,0.6250000000000001,1,1,0,0,0,0,0,0,0,0,1,1,1,1,0,-6.675863,109.081042,Nathan Welch
114,0.125,1,0,1,0,0,0,0,0,0,0,1,0,1,1,0,-7.346709,113.855959,Tammy Jones
115,0.4999999999999999,0,0,0,1,0,0,0,0,0,0,1,0,0,1,1,-6.597492,111.14718,Laura Cox
116,0.775,1,0,0,1,0,0,0,0,0,0,1,1,0,1,1,-6.229396,113.139078,Justin Randolph
117,0.6749999999999999,1,0,0,1,0,0,0,0,0,0,1,1,1,0,1,-6.113788,111.241357,Tiffany Rogers
118,0.475,0,1,0,0,0,0,0,0,0,0,1,0,1,1,0,-6.769257,106.894709,Christina Rodriguez DDS
119,0.1,1,0,0,0,0,0,0,0,1,0,1,0,0,1,1,-7.887724,110.217142,David Fischer
120,0.475,0,0,0,0,0,0,0,1,0,0,1,0,1,0,1,-7.194631,107.72868,Linda Leon
121,0.65,0,0,1,0,0,0,0,0,0,1,0,1,0,1,1,-7.09053,108.298427,Erin Peters
122,0.775,0,1,0,0,0,0,0,0,0,0,1,1,0,1,1,-7.468111,111.919621,Elizabeth Thomas
123,0.9500000000000001,0,1,0,0,0,0,0,0,0,0,1,1,1,1,0,-8.150962,111.739364,Jessica Kennedy
124,0.45000000000000007,0,0,0,0,0,0,0,0,1,1,1,0,0,1,1,-7.157106,111.125937,Joshua Santos
125,0.45000000000000007,0,0,0,0,0,0,0,1,0,0,1,1,1,1,0,-6.145473,110.692301,Jeffrey White
126,1,1,0,0,0,0,0,0,1,0,1,0,1,1,0,1,-6.280706,113.912014,Andrew Tyler
127,0.7500000000000001,0,0,0,0,0,0,0,1,0,0,1,1,1,0,1,-7.919188,106.479871,Clarence Hughes
128,0.9,0,0,1,0,0,0,0,0,0,1,0,1,0,1,1,-7.472441,111.61502,Brian Barnes
129,0.19999999999999996,0,0,0,1,0,0,0,0,0,1,0,1,0,1,1,-7.88122,106.566819,Brittany Horton
130,0,0,0,0,0,0,0,1,0,0,0,1,1,0,1,1,-8.164458,106.437851,Amy Jackson
131,0.275,0,0,0,0,0,0,0,0,1,1,0,1,1,0,1,-7.630253,110.603216,Jennifer Stanley
132,0.975,1,1,0,0,0,0,0,0,0,0,1,1,1,0,1,-7.189884,112.106143,Ashley Marshall
133,0.7999999999999999,1,0,0,1,0,0,0,0,0,0,1,0,0,1,1,-6.533452,111.843305,Maria Jackson
134,0.6250000000000001,0,0,0,0,0,0,0,0,1,0,1,1,0,1,1,-7.343679,111.658627,Lauren Jensen
135,0.17499999999999993,1,0,0,0,0,0,0,1,0,0,1,1,1,1,0,-7.460798,109.474106,Alexa Sanchez
136,0.05,1,0,0,1,0,0,0,0,0,1,0,1,1,0,1,-6.095706,110.83837,Joseph Torres
137,0.4,0,0,0,0,0,0,1,0,0,1,0,1,1,1,0,-6.726155,106.853777,Alexis Williams
138,0.22499999999999998,1,0,0,1,0,0,0,0,0,0,1,0,0,1,1,-6.23112,112.969178,Taylor Long
139,0.9500000000000001,0,0,0,0,0,0,1,0,0,1,1,0,1,1,0,-6.81349,107.919251,Tammy Nguyen MD
140,0.9249999999999999,0,0,0,0,0,0,0,1,0,0,1,1,1,1,0,-7.405969,106.948804,Stephanie Williams
141,0.525,0,0,0,1,0,0,0,0,0,1,1,0,0,1,1,-6.394446,109.12798,David Hicks
142,0,1,0,0,0,0,0,1,0,0,1,0,1,1,1,0,-7.511207,108.19594,Paul Jimenez
143,0.275,1,0,0,1,0,0,0,0,0,1,0,1,0,1,1,-8.120807,113.984887,Jason Vega
144,0.375,0,0,0,0,0,0,0,1,0,0,1,0,1,0,1,-7.036777,113.98001,William Rivera III
145,0.075,1,0,1,0,0,0,0,0,0,0,1,0,1,1,0,-8.290854,106.724172,Phillip Reed
146,0.5750000000000001,1,1,0,0,0,0,0,0,0,0,1,1,1,0,1,-6.826234,111.053184,Anne Lowery
147,0.775,0,0,0,1,0,0,0,0,0,0,1,1,0,1,1,-8.087425,110.697094,Charles Arias
148,0.9249999999999999,1,0,0,0,0,0,0,0,1,0,1,0,1,0,1,-7.232571,112.889946,Tina Thompson
149,0.5750000000000001,1,0,0,1,0,0,0,0,0,0,1,1,1,1,0,-6.466184,109.198291,Jeanette Carter
150,0.475,1,1,0,0,0,0,0,0,0,1,0,1,0,1,1,-6.255107,110.591144,Maxwell Martinez
151,0.025000000000000022,1,0,1,0,0,0,0,0,0,1,1,0,1,0,1,-6.763097,113.180415,Michelle Carpenter
152,0.15000000000000002,1,0,0,0,0,0,0,1,0,0,1,1,1,0,1,-7.365723,110.098276,Belinda Hamilton
153,0.29999999999999993,1,0,0,0,0,0,0,0,1,0,1,1,1,0,1,-7.688448,111.818895,Maurice David
154,0.35,0,0,0,1,0,0,0,0,0,0,1,0,0,1,1,-8.079059,106.071212,Christopher Page
155,0.075,1,0,1,0,0,0,0,0,0,0,1,1,1,0,1,-6.771851,107.38921,Steven Alvarado
156,0.05,1,0,0,0,0,0,0,1,0,1,0,1,1,1,0,-7.801124,109.353998,Sherry Ramirez
157,0.725,0,0,0,0,0,0,0,0,1,1,1,0,1,1,0,-8.006757,110.252522,Dana Mitchell
158,0.45000000000000007,1,0,1,0,0,0,0,0,0,0,1,0,1,1,0,-7.166031,113.365659,Joe Good
159,0.7999999999999999,0,0,0,1,0,0,0,0,0,0,1,1,0,1,1,-6.660159,110.934386,Stephen Lee
160,0.725,0,0,0,1,0,0,0,0,0,0,1,0,0,1,1,-6.250064,111.791475,Rebecca Cole
161,0.4,1,0,1,0,0,0,0,0,0,1,0,1,0,1,1,-7.97184,112.077738,Amanda Cervantes
162,0.9500000000000001,1,0,1,0,0,0,0,0,0,0,1,0,1,1,0,-7.517142,112.864936,Anthony Sloan
163,0.9249999999999999,1,0,0,0,0,0,0,0,1,0,1,0,1,1,0,-8.217443,106.544676,Christine Boyd
164,0.22499999999999998,1,0,0,1,0,0,0,0,0,0,1,1,1,0,1,-7.090076,112.458845,William Rodriguez
165,0.975,0,0,0,0,0,0,0,0,1,0,1,0,0,1,1,-7.890226,111.415861,Christopher Washington
166,0.9,0,1,0,0,0,0,0,0,0,1,1,0,1,1,0,-6.243385,112.693216,Samuel Douglas
167,0.05,1,0,0,0,0,0,1,0,0,0,1,1,0,1,1,-8.284657,111.914111,Elizabeth Fox
168,0.19999999999999996,0,0,0,0,0,0,1,0,0,0,1,0,1,0,1,-6.313985,111.238784,Emma Thomas DDS
169,0.45000000000000007,1,0,1,0,0,0,0,0,0,0,1,1,1,0,1,-6.133582,111.220816,Jacqueline Henson
170,0.42499999999999993,1,0,0,1,0,0,0,0,0,0,1,1,1,0,1,-6.86726,112.365557,Jonathan Howard
171,0.725,1,0,1,0,0,0,0,0,0,0,1,0,0,1,1,-7.989064,107.773972,Sarah May
172,0.32499999999999996,0,0,0,0,0,0,0,0,1,1,0,1,1,1,0,-6.951759,106.681784,Jacqueline Rose
173,0.9249999999999999,1,0,0,0,0,0,1,0,0,0,1,0,1,1,0,-7.682978,111.65243,Stacey Morrow
174,1,1,0,0,0,0,0,0,0,1,1,0,1,1,1,0,-7.038817,106.32667,Louis Porter
175,0.05,1,0,0,1,0,0,0,0,0,0,1,1,1,1,0,-7.178332,106.995512,Kathleen Davis
176,0.17499999999999993,0,0,0,0,0,0,0,0,1,0,1,0,1,0,1,-6.389333,112.108606,Margaret Henry
177,0.975,1,0,0,0,0,0,0,1,0,0,1,1,0,1,1,-7.324133,106.133898,Michele Navarro
178,0.7500000000000001,1,0,0,0,0,0,1,0,0,0,1,1,0,1,1,-6.418527,106.271953,Joel Andrade
179,0.6250000000000001,1,0,1,0,0,0,0,0,0,0,1,0,0,1,1,-7.142682,108.115848,Sarah Long
180,0.725,0,0,0,0,0,0,0,1,0,0,1,1,1,0,1,-6.997479,106.176349,Chad Wright
181,0.5499999999999999,1,0,0,0,0,0,0,1,0,1,1,0,1,0,1,-7.37568,113.897523,Todd Mendez
182,0.7000000000000001,0,0,0,1,0,0,0,0,0,1,0,1,1,1,0,-6.185687,108.494084,Stephen Stokes
183,0.17499999999999993,1,1,0,0,0,0,0,0,0,0,1,0,0,1,1,-7.640368,111.960618,Sydney Nelson
184,0.6749999999999999,0,0,0,0,0,0,0,1,0,0,1,1,1,1,0,-6.956971,108.426084,Andrew Hamilton MD
185,0.9,1,0,0,1,0,0,0,0,0,0,1,1,1,1,0,-6.4211,107.49043,Richard Charles
186,0.375,1,0,0,0,0,0,0,0,1,0,1,1,0,1,1,-6.07386,113.352458,Charles Hall
187,0.05,1,0,0,0,0,0,0,0,1,1,0,1,0,1,1,-6.850189,111.165951,Edwin Perry
188,0.375,0,1,0,0,0,0,0,0,0,0,1,0,1,1,0,-7.334112,107.082125,Jordan Reid
189,0.525,1,0,0,0,0,0,0,0,1,0,1,1,0,1,1,-7.317991,106.274499,Mary Duran
190,0.22499999999999998,0,1,0,0,0,0,0,0,0,0,1,0,1,0,1,-7.557884,109.735171,Ethan Fuller
191,0.85,0,0,0,0,0,0,0,1,0,0,1,0,1,0,1,-6.902216,113.379632,Vickie Reid
192,0.42499999999999993,1,0,0,0,0,0,0,0,1,0,1,1,1,0,1,-6.896653,113.167707,Elizabeth Sullivan
193,0.7999999999999999,0,0,0,0,0,0,0,1,0,0,1,0,0,1,1,-7.387507,109.690051,Dale Alexander
194,0.29999999999999993,1,0,1,0,0,0,0,0,0,0,1,0,1,1,0,-6.799485,111.253404,Mrs. Bianca Houston
195,0.525,1,1,0,0,0,0,0,0,0,0,1,0,0,1,1,-6.757928,110.394071,Steven Brennan
196,1,0,1,0,0,0,0,0,0,0,0,1,0,0,1,1,-7.654215,106.337286,Sharon Hart
197,0.9500000000000001,0,1,0,0,0,0,0,0,0,0,1,1,1,0,1,-7.659623,110.816636,Amanda Hamilton
198,1,0,0,1,0,0,0,0,0,0,0,1,0,1,0,1,-7.564653,108.028597,Sarah Williams
199,0.7999999999999999,0,1,0,0,0,0,0,0,0,0,1,0,1,1,0,-6.689846,111.26566,Isaac Dunn
200,0.075,1,0,0,1,0,0,0,0,0,1,0,1,0,1,1,-6.602891,113.380788,Christina Dunn
201,0.25,0,0,0,0,0,0,0,1,0,0,1,1,1,1,0,-7.420988,109.323693,Joshua Baxter
202,0.9249999999999999,0,0,1,0,0,0,0,0,0,1,0,1,1,0,1,-7.540979,106.829537,Elizabeth Juarez
203,0.7500000000000001,0,0,0,0,0,0,0,1,0,0,1,1,1,1,0,-6.49642,105.967144,Danielle Hamilton
204,0.05,1,0,1,0,0,0,0,0,0,0,1,0,1,0,1,-7.029286,112.954952,Stephen Hunter
205,0.29999999999999993,1,0,0,0,0,0,0,0,1,0,1,0,1,1,0,-6.277167,111.563334,Lucas Clements
206,0.8250000000000001,1,0,0,1,0,0,0,0,0,0,1,0,1,1,0,-6.257992,106.577196,Travis Wilkerson
207,0.025000000000000022,0,0,0,0,0,0,0,1,0,0,1,1,1,1,0,-6.252287,106.792643,Sheena Hamilton
208,0.475,1,0,0,0,0,0,0,1,0,1,0,1,1,1,0,-7.931251,111.967602,Angela Johnson
209,0.05,1,0,0,0,0,0,0,1,0,0,1,1,1,0,1,-6.356839,106.6667,Melinda Beltran
210,0.45000000000000007,1,0,1,0,0,0,0,0,0,0,1,0,1,1,0,-7.19256,112.819606,Casey Schmidt
211,0.775,0,0,0,0,0,0,0,1,0,0,1,1,1,0,1,-7.107139,106.743205,Victoria Blair
212,0.22499999999999998,0,0,1,0,0,0,0,0,0,0,1,1,1,0,1,-6.476939,111.35902,Richard Watkins
213,0.7000000000000001,1,1,0,0,0,0,0,0,0,0,1,0,1,0,1,-6.512063,111.531173,Anthony Walter
214,0,1,0,1,0,0,0,0,0,0,0,1,0,0,1,1,-6.134367,109.416988,Troy Dalton
215,0.35,1,0,0,1,0,0,0,0,0,1,1,0,0,1,1,-6.456802,111.868499,Laura Oconnell
216,0.9,1,1,0,0,0,0,0,0,0,0,1,1,1,1,0,-7.856926,112.503191,Tony Howard
217,0.075,0,0,0,0,0,0,0,0,1,0,1,0,1,0,1,-6.832735,108.591232,Emily Ford
218,0.375,1,0,0,1,0,0,0,0,0,0,1,0,1,1,0,-7.202455,110.069058,Christine Zuniga
219,0.35,0,0,0,0,0,0,0,0,1,1,1,0,0,1,1,-7.91619,107.327997,Brenda Powers
220,0.05,0,0,0,0,0,0,0,1,0,0,1,1,0,1,1,-7.068083,113.00584,Lindsay Shannon
221,0.5750000000000001,1,1,0,0,0,0,0,0,0,0,1,1,1,1,0,-6.597897,110.517468,Austin Harper
222,0.475,0,1,0,0,0,0,0,0,0,1,1,0,0,1,1,-6.287504,111.071755,Danielle Torres DDS
223,0.4,1,0,1,0,0,0,0,0,0,0,1,0,0,1,1,-6.713345,109.265595,Virginia Drake
224,0.6749999999999999,1,0,1,0,0,0,0,0,0,0,1,1,1,0,1,-6.927674,113.598485,Edward Walters
225,0.9,1,0,0,0,0,0,0,0,1,0,1,1,1,0,1,-6.704035,107.061671,Scott Smith
226,0.35,0,1,0,0,0,0,0,0,0,0,1,1,1,1,0,-8.091964,109.389327,Willie Henson
227,0.975,1,0,0,1,0,0,0,0,0,0,1,1,1,0,1,-7.206021,109.321796,Jeff Williams
228,0.15000000000000002,0,0,1,0,0,0,0,0,0,1,0,1,1,1,0,-8.078565,113.24586,Jeffrey Mccoy
229,1,0,0,0,1,0,0,0,0,0,0,1,1,0,1,1,-7.936737,110.509017,Zachary Russell
230,0.8250000000000001,0,0,0,0,0,0,0,0,1,0,1,0,1,0,1,-8.070719,109.998241,Reginald Davies
231,0.15000000000000002,1,0,0,0,0,0,0,0,1,0,1,0,1,1,0,-8.18388,112.121464,Jonathan Ferguson
232,0.125,0,0,0,1,0,0,0,0,0,1,0,1,0,1,1,-6.533275,111.746831,Kelly Peterson
233,0.22499999999999998,1,0,0,1,0,0,0,0,0,0,1,0,1,0,1,-7.709177,106.104679,Brittany Larson
234,0.125,0,0,0,0,0,0,0,0,1,0,1,1,1,0,1,-8.063531,109.461194,Brittany Morgan
235,0.15000000000000002,1,0,0,0,0,0,1,0,0,0,1,1,0,1,1,-6.183098,107.009125,Todd Lozano
236,0.4999999999999999,1,0,1,0,0,0,0,0,0,0,1,1,1,0,1,-7.510903,112.173319,Ruth Perez
237,0.85,1,1,0,0,0,0,0,0,0,0,1,0,1,1,0,-6.284591,111.757646,Leslie Lam
238,0.65,1,0,0,0,0,0,0,0,1,0,1,1,1,1,0,-7.687902,111.721033,Jacob Beck
239,0.725,0,0,0,0,0,0,0,0,1,0,1,0,1,0,1,-6.746353,108.03838,Donna Clay
240,0.475,1,0,0,1,0,0,0,0,0,1,0,1,1,1,0,-6.558014,113.301153,Timothy Liu
241,0.6749999999999999,0,1,0,0,0,0,0,0,0,0,1,1,0,1,1,-6.976614,110.432264,Colleen Edwards
242,0.29999999999999993,0,0,0,1,0,0,0,0,0,0,1,1,1,0,1,-8.0446,111.022527,Melinda Bailey
243,0.9249999999999999,0,1,0,0,0,0,0,0,0,0,1,1,1,0,1,-7.589662,112.123742,Tammy Shaw
244,0.975,1,0,0,0,0,0,0,0,1,0,1,0,1,1,0,-7.903739,111.111347,Abigail Phillips
245,0.9249999999999999,1,0,1,0,0,0,0,0,0,0,1,1,1,1,0,-6.438392,109.351517,Colleen Lawrence
246,0.8750000000000001,0,0,0,0,0,0,0,1,0,0,1,0,1,0,1,-7.268947,107.461706,Bruce Cook
247,0.8750000000000001,1,0,0,0,0,0,0,1,0,1,0,1,1,0,1,-7.52121,113.273574,Jodi Brandt
248,0.05,0,0,0,0,0,0,0,0,1,0,1,1,0,1,1,-6.998984,106.205112,Daniel Hart
249,0.29999999999999993,0,0,1,0,0,0,0,0,0,1,0,1,0,1,1,-7.218971,112.113215,Sara Davis
250,0.075,0,0,0,0,0,0,0,0,1,0,1,1,1,1,0,-7.978443,111.767243,Lisa Cameron
251,0.35,0,0,0,0,0,0,1,0,0,1,0,1,0,1,1,-7.589507,112.664963,Andrew Smith
252,0.725,1,1,0,0,0,0,0,0,0,1,1,0,0,1,1,-8.140342,108.209931,Tiffany Patton
253,0.85,0,0,0,0,0,0,0,0,1,0,1,0,0,1,1,-7.19079,111.748742,Roy Wood
254,0.6,0,1,0,0,0,0,0,0,0,0,1,0,1,1,0,-6.19185,106.544622,Sean Wilcox
255,0.15000000000000002,1,0,0,0,0,0,0,1,0,0,1,0,1,1,0,-6.873782,108.22689,Julia Snyder
256,0.7500000000000001,1,0,0,1,0,0,0,0,0,1,1,0,1,0,1,-6.089319,111.805547,Kathleen Hood
257,0.7999999999999999,0,1,0,0,0,0,0,0,0,1,1,0,0,1,1,-6.356959,112.262619,Barbara Romero
258,0.17499999999999993,0,0,0,0,0,0,1,0,0,0,1,1,1,0,1,-7.969569,106.001555,Todd Rollins
259,0.45000000000000007,0,0,0,0,0,0,1,0,0,0,1,0,1,0,1,-8.108221,109.664418,Christopher Martin
260,1,1,0,0,0,0,0,0,0,1,0,1,1,1,1,0,-7.926904,107.837844,Madeline Davis
261,0.075,1,0,0,1,0,0,0,0,0,1,0,1,0,1,1,-6.690471,107.318141,Melissa Griffith
262,0.4,0,0,0,0,0,0,0,0,1,0,1,0,1,0,1,-6.578629,112.179424,Autumn Steele
263,1,0,0,0,0,0,0,1,0,0,1,0,1,1,0,1,-7.320706,111.189,Ross Skinner
264,0.6749999999999999,0,0,0,0,0,0,1,0,0,0,1,0,0,1,1,-7.505231,110.024279,Nicole Robertson
265,0.29999999999999993,1,0,0,0,0,0,0,0,1,0,1,0,1,0,1,-6.156735,113.808397,Shawn Smith
266,0.17499999999999993,0,0,0,0,0,0,0,1,0,0,1,1,1,0,1,-6.911633,107.038338,Sherry Russell
267,0.975,1,0,1,0,0,0,0,0,0,1,1,0,1,1,0,-6.218142,108.160985,Alyssa Tucker
268,0.7999999999999999,0,0,0,0,0,0,1,0,0,0,1,0,1,0,1,-7.24139,106.276537,Phyllis James
269,0.6749999999999999,1,1,0,0,0,0,0,0,0,0,1,1,0,1,1,-7.617708,111.837012,Jason Chen
270,0.29999999999999993,1,0,0,1,0,0,0,0,0,0,1,0,1,1,0,-6.186825,111.153994,Ashley Phelps
271,0.32499999999999996,0,0,0,1,0,0,0,0,0,0,1,0,1,0,1,-6.203113,106.113286,David Mullins
272,0.25,0,0,0,1,0,0,0,0,0,0,1,1,0,1,1,-7.014448,112.802271,Janice Young
273,0.6250000000000001,1,0,0,1,0,0,0,0,0,0,1,0,1,0,1,-7.997119,108.680039,Molly Torres
274,0.725,1,0,1,0,0,0,0,0,0,1,1,0,0,1,1,-6.415926,112.067177,Glenn Little
275,0.05,1,1,0,0,0,0,0,0,0,0,1,0,0,1,1,-6.469635,112.800775,Jacob Walker
276,0.05,0,0,0,0,0,0,0,0,1,0,1,0,0,1,1,-6.771654,108.06746,Jessica Choi
277,0.775,1,1,0,0,0,0,0,0,0,0,1,0,1,1,0,-7.014253,110.426805,Kimberly Adams
278,0.9249999999999999,0,0,0,0,0,0,1,0,0,0,1,0,1,1,0,-7.280649,113.779985,Sandra Trevino
279,0.725,0,0,0,0,0,0,0,1,0,1,1,0,1,1,0,-7.690904,111.685702,Tracy Park
280,0.9249999999999999,0,0,0,0,0,0,0,1,0,0,1,0,0,1,1,-6.608595,106.686864,Hannah Bailey
281,0.29999999999999993,0,0,0,0,0,0,1,0,0,1,1,0,0,1,1,-7.496829,111.893759,Brianna Jackson
282,0.85,1,0,0,0,0,0,0,0,1,1,1,0,1,1,0,-8.067197,109.656864,Emma Arroyo
283,0.45000000000000007,0,0,0,0,0,0,0,1,0,1,1,0,0,1,1,-6.252986,112.233876,John Mann
284,0.975,1,0,1,0,0,0,0,0,0,1,1,0,1,0,1,-6.532884,112.034173,Thomas Wolf
285,0.525,0,0,0,0,0,0,0,0,1,1,0,1,1,0,1,-7.445502,107.149006,Matthew Dorsey
286,0.4,0,0,1,0,0,0,0,0,0,0,1,0,1,0,1,-6.055641,113.32379,Christopher Smith
287,0.8750000000000001,1,0,1,0,0,0,0,0,0,0,1,0,0,1,1,-8.262046,106.078928,Joseph Macias
288,0,0,0,0,0,0,0,1,0,0,1,1,0,1,1,0,-6.034042,112.297556,Cynthia Rojas
289,0.275,1,0,1,0,0,0,0,0,0,0,1,1,0,1,1,-7.758223,109.285147,Linda George
290,0.17499999999999993,1,0,1,0,0,0,0,0,0,1,1,0,0,1,1,-6.043248,109.32124,Shelley Martin
291,0.15000000000000002,1,0,0,0,0,0,0,0,1,1,1,0,0,1,1,-6.740874,110.352064,Nicholas Williams
292,0.32499999999999996,1,0,0,0,0,0,0,1,0,0,1,0,1,0,1,-6.520031,112.498439,Ryan Williams
293,0.19999999999999996,1,0,0,1,0,0,0,0,0,0,1,0,1,0,1,-7.784157,107.693059,Gary Cabrera MD
294,0.05,1,0,0,1,0,0,0,0,0,0,1,0,0,1,1,-7.358905,108.579484,Dr. Lisa Martinez
295,0.1,0,0,1,0,0,0,0,0,0,1,0,1,0,1,1,-7.068039,110.242463,Brittany Little
296,0.45000000000000007,0,0,0,0,0,0,0,0,1,0,1,1,1,1,0,-7.1804,108.566203,Karl Rose
297,0.9500000000000001,0,0,0,0,0,0,0,1,0,0,1,1,0,1,1,-6.77807,106.875916,Nicole Curtis
298,0.29999999999999993,0,0,1,0,0,0,0,0,0,1,1,0,1,1,0,-7.564115,108.988574,Kimberly Finley
299,0.725,0,0,0,0,0,0,1,0,0,0,1,1,1,0,1,-7.617376,112.633201,Krystal Torres
300,0.85,1,1,0,0,0,0,0,0,0,1,0,1,0,1,1,-8.115924,106.139349,Pamela Frost
301,0.475,0,0,1,0,0,0,0,0,0,0,1,1,1,0,1,-8.18249,106.089607,Samantha Boyd
302,0.075,0,0,0,0,0,0,1,0,0,0,1,1,1,0,1,-6.885086,112.734198,Ms. Kristina King
303,0.9500000000000001,0,0,0,1,0,0,0,0,0,0,1,0,0,1,1,-6.779642,111.447729,April Riggs
304,0.975,0,0,0,0,0,0,0,1,0,0,1,1,0,1,1,-6.994493,107.24233,Charles Sanchez DVM
305,0.85,1,0,0,1,0,0,0,0,0,0,1,1,0,1,1,-7.808743,113.423005,Kimberly Brown
306,0.65,0,0,0,0,0,0,0,0,1,0,1,0,0,1,1,-8.287464,113.615976,Don Hayes
307,0.475,0,1,0,0,0,0,0,0,0,0,1,1,1,0,1,-6.523319,111.376175,Melinda Taylor
308,0.9249999999999999,1,0,0,0,0,0,1,0,0,0,1,0,1,0,1,-7.918678,113.763738,Tanya Diaz
309,0.725,0,0,0,0,0,0,1,0,0,1,0,1,1,1,0,-6.566547,108.182657,Thomas Murray
310,0.4,1,0,1,0,0,0,0,0,0,1,1,0,1,1,0,-7.060362,110.075094,Allison Gomez
311,0.17499999999999993,1,1,0,0,0,0,0,0,0,0,1,1,0,1,1,-7.535406,112.175699,Andre Gonzalez
312,0.65,0,0,0,0,0,0,0,0,1,0,1,1,1,0,1,-7.483499,109.727045,Kathleen Weiss
313,0.4,1,1,0,0,0,0,0,0,0,0,1,1,0,1,1,-7.793461,110.065245,Michael Parker
314,0.45000000000000007,0,0,0,0,0,0,0,0,1,1,0,1,1,0,1,-7.948001,113.909722,Jordan Sanders
315,0.5499999999999999,0,0,1,0,0,0,0,0,0,0,1,0,0,1,1,-7.579483,108.583868,David Hernandez
316,0.1,0,0,0,0,0,0,0,1,0,0,1,1,1,1,0,-7.102984,106.069451,Jamie Green
317,0.25,1,1,0,0,0,0,0,0,0,0,1,1,1,1,0,-7.59849,108.666086,Paula Cowan
318,0.7999999999999999,1,0,0,0,0,0,0,0,1,1,1,0,1,0,1,-6.382974,113.750066,Elizabeth Perkins
319,0.525,1,0,0,0,0,0,0,1,0,0,1,1,0,1,1,-6.1914,112.79852,Michelle Davidson
320,0.42499999999999993,1,0,0,0,0,0,1,0,0,0,1,0,1,0,1,-6.188606,109.026608,Kelsey Stewart
321,0.6,1,0,0,0,0,0,1,0,0,0,1,0,1,1,0,-8.085117,107.977994,Debbie King
322,0.5750000000000001,0,0,0,0,0,0,1,0,0,0,1,1,0,1,1,-7.231156,107.692916,Joshua Melton
323,0.7500000000000001,0,0,0,0,0,0,1,0,0,0,1,0,0,1,1,-7.428922,110.778657,Bradley Davenport
324,0.17499999999999993,0,0,1,0,0,0,0,0,0,1,1,0,1,1,0,-7.364459,106.679509,Kayla Beck
325,0.075,1,0,0,0,0,0,1,0,0,1,1,0,0,1,1,-6.758859,108.035397,Kelly Johnson
326,0.1,0,0,0,1,0,0,0,0,0,0,1,1,1,0,1,-6.301586,113.471586,David Davis
327,0.7999999999999999,0,0,0,1,0,0,0,0,0,0,1,1,0,1,1,-6.274032,106.267757,Aaron Smith
328,0.475,0,0,0,0,0,0,0,1,0,0,1,1,1,0,1,-6.176455,111.899945,Amy Garcia
329,0.32499999999999996,0,1,0,0,0,0,0,0,0,0,1,0,1,1,0,-6.569707,106.702935,Tiffany Reynolds
330,0.4,1,1,0,0,0,0,0,0,0,0,1,1,1,0,1,-6.456771,111.428869,Timothy Reyes
331,0.4999999999999999,0,1,0,0,0,0,0,0,0,1,0,1,0,1,1,-8.067884,110.96955,David Riddle
332,0.7999999999999999,0,0,0,0,0,0,0,0,1,0,1,0,1,1,0,-8.046511,107.678057,Donna Valenzuela
333,0.32499999999999996,1,0,0,0,0,0,0,0,1,0,1,0,1,0,1,-6.997025,111.780699,Matthew Reynolds
334,0.6250000000000001,0,0,0,0,0,0,0,1,0,0,1,1,0,1,1,-7.407601,112.538395,Heather Lopez
335,0.475,0,1,0,0,0,0,0,0,0,0,1,1,0,1,1,-6.756385,110.25239,John Nelson
336,0.9,1,0,0,0,0,0,0,0,1,0,1,1,1,0,1,-6.183526,110.79981,Kenneth Thomas
337,0.32499999999999996,1,0,0,1,0,0,0,0,0,0,1,1,1,1,0,-6.486994,112.590587,Antonio Newman
338,0.475,0,0,1,0,0,0,0,0,0,0,1,1,1,0,1,-7.552778,111.694141,Stephanie Dennis
339,0.6749999999999999,1,0,1,0,0,0,0,0,0,0,1,0,1,0,1,-6.504954,106.121664,Patricia Williams
340,0.5499999999999999,0,0,0,1,0,0,0,0,0,0,1,1,1,1,0,-7.434534,110.19674,Laura Perez
341,0.05,0,1,0,0,0,0,0,0,0,1,0,1,1,1,0,-6.65022,112.9549,Susan Rogers
342,0.65,0,0,0,0,0,0,0,0,1,0,1,0,0,1,1,-7.263088,109.709743,Kevin Wright
343,1,1,0,0,0,0,0,0,0,1,0,1,0,1,1,0,-8.081396,108.49246,Daniel Smith
344,0.65,1,0,0,1,0,0,0,0,0,0,1,0,1,0,1,-8.135738,110.68754,Charles Howe DDS
345,0.5750000000000001,0,0,0,0,0,0,1,0,0,0,1,0,0,1,1,-7.917703,108.165801,Angela Mccormick
346,0.7500000000000001,1,0,0,0,0,0,0,0,1,0,1,0,1,0,1,-8.139899,112.380809,Nicholas Anderson
347,0.25,0,1,0,0,0,0,0,0,0,1,0,1,0,1,1,-7.404663,108.797673,Louis Hammond
348,0,1,1,0,0,0,0,0,0,0,0,1,0,0,1,1,-7.893555,108.865727,Brian Greene
349,0.375,0,0,0,1,0,0,0,0,0,0,1,0,0,1,1,-6.667726,107.067759,Jason Sandoval
350,0.5499999999999999,0,0,0,1,0,0,0,0,0,0,1,1,1,1,0,-7.81924,110.69009,James Obrien
351,0.975,1,0,1,0,0,0,0,0,0,0,1,0,0,1,1,-7.51545,109.323148,Paul Moore
352,0.375,0,0,0,0,0,0,0,0,1,0,1,1,1,1,0,-6.42437,105.918068,Jerome Fletcher
353,0.45000000000000007,0,0,0,0,0,0,1,0,0,0,1,1,1,1,0,-7.507678,113.125504,Angelica Barnes
354,0.1,0,0,1,0,0,0,0,0,0,0,1,0,0,1,1,-8.262002,106.35143,Sheila Franklin
355,0.075,0,1,0,0,0,0,0,0,0,0,1,1,1,1,0,-7.282706,106.663685,Eric Scott
356,0.65,0,0,0,0,0,0,1,0,0,0,1,1,1,0,1,-7.381016,110.56969,Amanda Myers
357,0.17499999999999993,0,0,0,1,0,0,0,0,0,0,1,1,1,0,1,-6.500941,113.794291,Peggy Gonzales
358,0.05,0,0,0,0,0,0,0,1,0,0,1,0,0,1,1,-6.243675,113.06155,Michele Reynolds
359,0.275,1,0,1,0,0,0,0,0,0,0,1,1,0,1,1,-7.163251,110.49649,Amanda Hodge
360,0.4999999999999999,1,0,0,0,0,0,1,0,0,0,1,0,1,0,1,-7.106863,108.071249,Robert White
361,0.9,1,1,0,0,0,0,0,0,0,1,0,1,1,1,0,-7.957414,112.811814,Kristin Kline
362,0.5499999999999999,0,0,0,1,0,0,0,0,0,0,1,1,0,1,1,-7.492736,113.124401,Veronica Nicholson
363,0.05,0,0,0,0,0,0,0,1,0,0,1,0,1,0,1,-6.636419,107.165379,Carrie Hill
364,0.15000000000000002,0,0,0,1,0,0,0,0,0,1,0,1,0,1,1,-6.550452,111.443019,Scott Wallace
365,0.4999999999999999,1,0,0,0,0,0,0,1,0,0,1,0,1,0,1,-7.118398,111.511487,Miss Lisa Ross
366,0.35,1,1,0,0,0,0,0,0,0,0,1,0,1,0,1,-6.677749,109.111863,John Brown
367,0.1,0,1,0,0,0,0,0,0,0,0,1,1,0,1,1,-7.590388,111.243037,Madison Moore
368,0.525,1,1,0,0,0,0,0,0,0,1,0,1,1,0,1,-7.343852,109.134242,Thomas Zamora
369,0.1,1,0,0,1,0,0,0,0,0,1,0,1,1,0,1,-7.423966,109.388341,Lisa Harper
370,0.22499999999999998,0,1,0,0,0,0,0,0,0,1,0,1,0,1,1,-7.012358,111.206169,Tyler Wallace
371,0.45000000000000007,0,0,0,1,0,0,0,0,0,0,1,1,1,0,1,-6.837342,107.523303,Ian Alexander
372,0.9500000000000001,1,0,0,0,0,0,0,0,1,0,1,1,1,0,1,-6.71893,108.262804,James Dean
373,0.125,1,0,0,0,0,0,0,0,1,0,1,1,1,1,0,-6.143534,112.675171,Jeff Roberts
374,0.05,0,0,1,0,0,0,0,0,0,0,1,1,0,1,1,-7.272683,108.130705,Diane Norman
375,0.17499999999999993,0,0,0,0,0,0,1,0,0,0,1,0,1,0,1,-6.892988,105.945303,Joshua Smith
376,0.9,1,0,0,1,0,0,0,0,0,0,1,1,1,0,1,-7.509898,106.255706,Holly Krueger
377,0.775,1,0,1,0,0,0,0,0,0,1,1,0,1,0,1,-7.598646,111.252862,David Nelson
378,0.25,0,0,0,0,0,0,0,1,0,0,1,0,0,1,1,-7.022565,107.193717,Regina Hernandez
379,0.5499999999999999,1,0,0,0,0,0,0,0,1,0,1,1,1,1,0,-6.400046,108.842007,Cody House
380,0.6,1,0,0,0,0,0,0,1,0,0,1,0,0,1,1,-7.851728,106.366775,Paul Reynolds
381,0.9,0,0,1,0,0,0,0,0,0,0,1,1,1,0,1,-7.074546,113.672631,Gail Castaneda DVM
382,0.6,1,0,0,1,0,0,0,0,0,0,1,1,1,1,0,-7.103575,111.610829,James Ochoa
383,0.9249999999999999,1,0,0,0,0,0,1,0,0,0,1,1,1,0,1,-6.317439,113.293824,Heather Smith
384,0.7500000000000001,1,0,0,0,0,0,1,0,0,0,1,0,1,1,0,-7.569782,113.779113,Sheila Bryant
385,0.15000000000000002,1,1,0,0,0,0,0,0,0,0,1,1,0,1,1,-6.938209,109.061277,Andrew Kim
386,0.275,1,0,0,0,0,0,0,0,1,0,1,0,1,0,1,-6.927429,106.048122,Margaret Brown
387,0,0,0,0,0,0,0,0,1,0,0,1,0,1,1,0,-8.207026,112.776861,Paul Brock
388,0.1,1,0,0,1,0,0,0,0,0,0,1,1,1,1,0,-7.482944,106.364825,Julie Torres
389,0.025000000000000022,1,0,0,1,0,0,0,0,0,1,0,1,1,0,1,-7.914426,111.374741,Carol Miller DVM
390,0.42499999999999993,0,0,0,1,0,0,0,0,0,0,1,0,1,0,1,-6.91374,108.840628,Kristina Flores
391,1,0,1,0,0,0,0,0,0,0,0,1,0,0,1,1,-6.349493,112.296988,Austin Pierce
392,0.05,0,0,0,1,0,0,0,0,0,1,1,0,1,0,1,-6.303854,108.674698,Linda Mason
393,0.22499999999999998,1,0,0,0,0,0,0,1,0,0,1,0,1,0,1,-6.747258,109.608596,Amanda Barnes
394,0.9500000000000001,0,0,1,0,0,0,0,0,0,0,1,1,1,1,0,-8.136541,107.695437,Jennifer Lee
395,0.5750000000000001,1,0,0,1,0,0,0,0,0,0,1,0,1,1,0,-6.421456,106.408156,Kathleen Anderson
396,0.9500000000000001,0,1,0,0,0,0,0,0,0,0,1,1,1,0,1,-7.822112,108.601365,Lisa Maddox
397,0.17499999999999993,0,0,0,0,0,0,0,1,0,0,1,1,0,1,1,-7.904684,113.432069,Ashley Snow
398,0.19999999999999996,1,0,0,0,0,0,0,1,0,1,1,0,1,0,1,-7.606088,113.23257,Mrs. Debbie Saunders
399,0.7999999999999999,1,1,0,0,0,0,0,0,0,1,0,1,1,0,1,-7.916946,113.795957,Emily Lee
400,0.5499999999999999,1,0,0,0,0,0,0,1,0,0,1,1,1,1,0,-6.588339,106.278456,Steven Smith
401,0,0,0,0,0,0,0,1,0,0,0,1,1,0,1,1,-6.564183,110.200914,Jonathan Campbell
402,0.5750000000000001,1,0,1,0,0,0,0,0,0,0,1,0,1,0,1,-7.531649,108.95629,Madison Reeves
403,0.35,0,0,0,0,0,0,1,0,0,0,1,1,1,1,0,-7.383316,110.930824,David Dennis
404,0.17499999999999993,0,0,1,0,0,0,0,0,0,1,0,1,1,0,1,-6.94234,107.225408,Brian Johnson
405,0.19999999999999996,0,1,0,0,0,0,0,0,0,0,1,0,1,0,1,-6.251258,108.493399,James Lee
406,0.19999999999999996,1,1,0,0,0,0,0,0,0,0,1,0,0,1,1,-7.68275,113.034319,Mr. Troy Drake PhD
407,0.9,0,0,0,0,0,0,0,0,1,0,1,0,1,0,1,-6.059056,108.765384,Brandy Clark
408,0.35,1,0,0,0,0,0,1,0,0,0,1,1,0,1,1,-8.138352,109.49048,Austin King
409,0.5750000000000001,0,0,0,0,0,0,0,1,0,0,1,0,1,1,0,-8.293501,113.012293,Joseph Vasquez
410,0.25,0,0,0,0,0,0,0,1,0,0,1,0,1,1,0,-7.69776,113.62473,Jaclyn Ayala
411,0.17499999999999993,0,0,0,0,0,0,1,0,0,0,1,0,1,0,1,-6.49928,112.364349,Courtney Orr
412,0.975,1,0,0,0,0,0,0,1,0,0,1,0,1,1,0,-7.626394,108.553872,Jacqueline Ryan
413,0.6749999999999999,0,1,0,0,0,0,0,0,0,1,0,1,0,1,1,-6.512097,106.194178,Joseph Cline
414,0.9500000000000001,0,0,0,1,0,0,0,0,0,0,1,0,1,1,0,-7.899362,109.906582,Danielle Fernandez
415,0.4,0,1,0,0,0,0,0,0,0,0,1,1,1,1,0,-7.971783,110.600893,George Nelson
416,0.6250000000000001,0,0,0,0,0,0,0,0,1,0,1,1,1,0,1,-7.692917,106.470255,Patrick Fletcher
417,0.1,0,0,0,1,0,0,0,0,0,0,1,1,0,1,1,-8.237227,106.737902,Daniel Perry
418,0.7500000000000001,1,0,0,0,0,0,0,0,1,1,0,1,1,1,0,-8.038148,112.151452,Cynthia Moses
419,0.4999999999999999,0,0,0,1,0,0,0,0,0,1,0,1,1,1,0,-6.299889,109.584441,Belinda Malone
420,0.35,0,0,0,1,0,0,0,0,0,0,1,1,1,1,0,-8.058205,112.140902,Peter Brooks
421,0.475,1,0,0,1,0,0,0,0,0,0,1,1,0,1,1,-7.355994,112.769762,Mrs. Lauren Maldonado MD
422,0.9500000000000001,0,0,0,1,0,0,0,0,0,0,1,0,1,0,1,-6.344686,111.456264,Mary Burton
423,0.275,1,1,0,0,0,0,0,0,0,0,1,0,1,1,0,-7.661734,110.559951,Daryl Morgan
424,0.6250000000000001,1,1,0,0,0,0,0,0,0,1,1,0,1,0,1,-7.333058,110.270478,Brian Hamilton
425,0.25,1,0,1,0,0,0,0,0,0,0,1,1,0,1,1,-7.058127,106.351719,Caitlin Hamilton
426,0.5499999999999999,1,1,0,0,0,0,0,0,0,0,1,1,0,1,1,-6.69623,106.180481,Emily Mcdonald
427,0.17499999999999993,1,0,0,0,0,0,0,0,1,0,1,1,1,1,0,-7.085763,109.885308,Sarah Wilson
428,0.25,1,0,0,0,0,0,0,0,1,0,1,1,0,1,1,-6.703139,113.731048,Mackenzie Lucero
429,0.725,1,0,0,0,0,0,1,0,0,0,1,0,1,0,1,-7.805328,109.01681,Louis Kennedy
430,0.5750000000000001,0,0,0,0,0,0,0,1,0,0,1,0,1,0,1,-6.967465,110.071958,Beth Martinez
431,0.05,0,0,0,0,0,0,1,0,0,0,1,1,0,1,1,-7.873238,107.185924,Lisa Evans
432,0.4999999999999999,0,0,0,0,0,0,0,1,0,0,1,1,1,1,0,-7.40563,106.952238,Gabrielle Casey
433,0.075,0,0,1,0,0,0,0,0,0,1,0,1,1,1,0,-8.290947,113.255434,Robert Church
434,0.7500000000000001,0,0,0,0,0,0,0,0,1,0,1,1,0,1,1,-7.216502,112.412423,Tamara Garcia
435,0.7000000000000001,1,0,0,0,0,0,1,0,0,0,1,1,1,0,1,-7.752392,111.911197,Sandra Parker
436,0.05,0,0,0,0,0,0,0,0,1,0,1,0,1,1,0,-7.555634,113.564145,Janice Torres
437,0.8250000000000001,1,0,0,0,0,0,0,1,0,0,1,0,0,1,1,-8.226046,110.162179,Joann Holmes
438,0.45000000000000007,1,0,0,1,0,0,0,0,0,1,0,1,0,1,1,-7.575515,106.084786,Jennifer Rivers
439,0.65,0,0,0,0,0,0,0,1,0,1,1,0,1,0,1,-7.435419,108.413316,William Wall
440,0.125,0,1,0,0,0,0,0,0,0,0,1,1,0,1,1,-7.993193,107.599489,Thomas Caldwell
441,0.85,1,0,0,0,0,0,1,0,0,0,1,0,1,0,1,-7.530169,107.698789,Lisa Williams
442,0.8250000000000001,1,0,0,0,0,0,0,0,1,0,1,0,1,0,1,-7.174683,111.503346,Benjamin Sharp
443,0.025000000000000022,1,1,0,0,0,0,0,0,0,0,1,0,1,1,0,-6.87694,111.908613,Jennifer Taylor
444,0.65,1,0,0,0,0,0,0,0,1,0,1,1,0,1,1,-6.636596,112.629077,Hannah Henderson
445,0.6,1,0,1,0,0,0,0,0,0,0,1,0,1,1,0,-6.311461,112.114741,Thomas Townsend
446,0.375,1,1,0,0,0,0,0,0,0,0,1,1,1,0,1,-8.11207,107.691258,James Zuniga
447,1,1,0,0,0,0,0,0,0,1,0,1,1,0,1,1,-6.437944,107.660263,John Parker
448,0.7999999999999999,0,0,0,0,0,0,1,0,0,0,1,0,1,0,1,-6.903911,109.095995,Mary Cunningham
449,0.725,1,0,0,1,0,0,0,0,0,1,0,1,1,0,1,-6.86896,111.316026,Jonathan Browning
450,0.05,1,0,0,0,0,0,0,0,1,0,1,1,1,0,1,-6.771205,108.177234,Fred Cook
451,0.85,1,0,0,0,0,0,0,1,0,0,1,0,1,0,1,-6.252241,106.968865,Susan Higgins
452,0.6,0,0,0,0,0,0,1,0,0,0,1,0,0,1,1,-7.433067,113.938774,Spencer Fisher
453,0.125,0,1,0,0,0,0,0,0,0,0,1,1,0,1,1,-8.003219,111.786626,Tyler Wilson
454,0.42499999999999993,1,0,0,0,0,0,1,0,0,0,1,0,1,0,1,-7.628208,111.588077,Terrence Banks
455,0.7000000000000001,0,0,0,0,0,0,1,0,0,0,1,0,1,1,0,-7.496571,106.753,Douglas Bishop
456,0.525,1,0,0,0,0,0,0,1,0,1,0,1,1,0,1,-7.474279,108.404988,Travis Davis
457,0.05,0,0,0,0,0,0,0,0,1,1,0,1,1,0,1,-6.723568,107.289944,John Butler
458,0.6250000000000001,1,0,0,1,0,0,0,0,0,0,1,0,1,1,0,-7.576735,112.685279,Terry Castro
459,0.6250000000000001,1,0,1,0,0,0,0,0,0,0,1,0,0,1,1,-7.478256,110.156152,Jeremy Coleman
460,0,1,1,0,0,0,0,0,0,0,0,1,1,0,1,1,-8.162839,108.645018,Corey Smith
461,0.15000000000000002,0,0,0,0,0,0,0,1,0,0,1,0,0,1,1,-6.325637,110.888906,Blake Johnson
462,0.975,0,0,0,1,0,0,0,0,0,0,1,1,0,1,1,-6.400998,106.959693,Allen Taylor
463,0.05,0,0,0,0,0,0,0,0,1,0,1,0,1,1,0,-7.536457,112.343738,Ross Carlson
464,0.6749999999999999,0,0,0,1,0,0,0,0,0,1,0,1,1,1,0,-6.872986,109.446474,Dennis Ward
465,0.19999999999999996,0,1,0,0,0,0,0,0,0,0,1,1,0,1,1,-7.339955,110.420411,Barry Baker
466,0.9,0,1,0,0,0,0,0,0,0,1,0,1,0,1,1,-8.227914,113.833236,Daniel Kelly
467,0.35,0,0,0,1,0,0,0,0,0,0,1,1,1,0,1,-6.008679,109.82148,Sierra Hendrix
468,0.7500000000000001,0,0,0,0,0,0,0,1,0,1,0,1,1,1,0,-6.768296,106.455069,Diana Hoffman
469,0.4999999999999999,0,0,0,0,0,0,1,0,0,0,1,0,0,1,1,-6.215005,112.445841,Ryan Weaver
470,0.525,0,1,0,0,0,0,0,0,0,0,1,0,0,1,1,-6.049283,112.354328,Ryan Carroll
471,0.475,0,0,0,0,0,0,0,0,1,1,0,1,0,1,1,-6.750688,108.590176,Joseph Martinez
472,0.9249999999999999,0,1,0,0,0,0,0,0,0,0,1,1,1,0,1,-6.773195,113.744102,David Gray
473,0.975,0,0,0,0,0,0,1,0,0,0,1,0,0,1,1,-7.410204,113.904689,Benjamin Lewis
474,0.29999999999999993,1,0,0,0,0,0,0,1,0,0,1,0,1,0,1,-6.558415,105.945401,Mark Long
475,0.22499999999999998,1,1,0,0,0,0,0,0,0,0,1,0,1,1,0,-6.692516,110.88671,Erin Roberts
476,0.22499999999999998,1,0,0,1,0,0,0,0,0,0,1,0,0,1,1,-6.894705,110.103083,Matthew Kennedy
477,0.85,0,0,0,1,0,0,0,0,0,1,0,1,1,0,1,-6.688138,109.596967,Jeffery Wiggins
478,0.4,1,0,0,1,0,0,0,0,0,0,1,1,1,1,0,-6.312897,106.33772,Maxwell Thompson
479,0.7000000000000001,1,0,0,0,0,0,0,0,1,1,0,1,0,1,1,-7.236566,110.269866,Oscar Murphy
480,0.025000000000000022,1,0,0,1,0,0,0,0,0,0,1,0,0,1,1,-7.183779,107.910207,Leslie Hodge
481,0.7500000000000001,0,0,1,0,0,0,0,0,0,0,1,0,1,0,1,-7.689178,109.455673,Briana Church
482,0,1,0,1,0,0,0,0,0,0,0,1,0,0,1,1,-7.715621,113.21389,Erica Castro
483,0.6250000000000001,1,0,0,0,0,0,1,0,0,1,0,1,1,1,0,-6.772174,113.439585,Wendy Chavez
484,0.42499999999999993,1,0,0,0,0,0,0,0,1,1,1,0,1,1,0,-6.814495,112.382981,Penny Mendez
485,0.025000000000000022,1,1,0,0,0,0,0,0,0,0,1,1,1,0,1,-6.869991,112.881087,Eric Mccann
486,0.525,1,0,0,1,0,0,0,0,0,0,1,0,0,1,1,-7.996077,112.478553,Jessica Nguyen
487,0.7500000000000001,0,0,1,0,0,0,0,0,0,0,1,1,1,1,0,-6.793423,106.731751,Derek Washington
488,0.8750000000000001,0,1,0,0,0,0,0,0,0,1,1,0,1,0,1,-6.415654,113.473087,Sean Ortiz
489,0.17499999999999993,0,0,1,0,0,0,0,0,0,0,1,1,1,1,0,-6.517504,108.081211,Justin Maldonado
490,0.42499999999999993,1,0,0,0,0,0,1,0,0,0,1,0,1,1,0,-6.617713,106.785694,Tiffany Hartman
491,0.25,0,0,1,0,0,0,0,0,0,0,1,0,1,0,1,-7.894758,109.739497,Bradley Bird
492,0.19999999999999996,1,0,0,0,0,0,0,0,1,0,1,1,0,1,1,-7.007616,110.745188,Christopher Robinson
493,0.65,0,0,0,0,0,0,1,0,0,1,0,1,0,1,1,-6.958193,106.186516,Michelle Hull
494,0.075,1,0,0,0,0,0,1,0,0,0,1,0,0,1,1,-6.75118,108.678259,Gregory Smith
495,0.775,1,0,0,0,0,0,0,1,0,0,1,0,0,1,1,-7.592621,108.762284,Larry Herrera
496,1,0,0,1,0,0,0,0,0,0,1,0,1,0,1,1,-6.236061,113.844312,Heidi Dennis
497,0.5499999999999999,1,0,0,1,0,0,0,0,0,1,0,1,0,1,1,-7.954924,111.970197,Emma Andrews
498,0.8250000000000001,0,0,0,0,0,0,1,0,0,0,1,1,1,1,0,-6.19978,110.529441,Robert Carey
499,0.35,1,0,0,1,0,0,0,0,0,0,1,0,0,1,1,-7.338173,111.452313,Andre Cannon
500,0.7500000000000001,1,0,0,0,0,0,1,0,0,0,1,0,1,0,1,-7.904858,106.495546,William Alvarez
501,0.8250000000000001,0,0,0,0,0,0,1,0,0,0,1,1,1,1,0,-6.782896,110.126894,Amy Wood
502,0.1,0,0,0,0,0,0,1,0,0,0,1,1,1,1,0,-7.382694,111.450382,Eugene Welch
503,0.075,1,0,0,1,0,0,0,0,0,0,1,0,0,1,1,-6.402248,106.438253,Lori Foster
504,0.725,1,0,0,0,0,0,0,0,1,0,1,0,1,1,0,-6.565997,109.432703,Joshua Bartlett
505,0.4,0,0,0,0,0,0,0,1,0,0,1,1,1,1,0,-7.401967,109.854155,Cassandra Lynn
506,0.7500000000000001,1,0,0,0,0,0,1,0,0,0,1,0,1,1,0,-8.062233,107.816202,Kelly Young
507,0.775,0,1,0,0,0,0,0,0,0,1,0,1,1,0,1,-6.16445,112.741484,Ruth Farmer
508,0.65,1,0,1,0,0,0,0,0,0,0,1,1,0,1,1,-7.234991,107.144207,Cory Ochoa
509,0.45000000000000007,0,0,0,1,0,0,0,0,0,1,0,1,1,1,0,-7.607069,110.436654,James Rhodes
510,0.975,0,0,0,0,0,0,1,0,0,1,0,1,0,1,1,-7.445161,109.162958,Shannon Fowler
511,0.4999999999999999,0,0,1,0,0,0,0,0,0,1,1,0,0,1,1,-7.545436,106.224147,Lori Griffith
512,0.9,0,0,0,0,0,0,0,1,0,0,1,0,1,1,0,-8.04591,108.365326,Samuel Cook
513,0.4,0,0,1,0,0,0,0,0,0,0,1,1,1,1,0,-7.258104,109.448395,Robert Martinez
514,0.9,1,0,0,1,0,0,0,0,0,0,1,1,1,1,0,-6.387589,108.841641,Tina Wright
515,0.65,1,0,0,1,0,0,0,0,0,0,1,0,1,1,0,-6.146606,110.929178,Nathan Anthony
516,0.7500000000000001,0,0,0,0,0,0,0,0,1,1,0,1,1,1,0,-7.542713,106.197988,Troy Lloyd
517,0.19999999999999996,0,0,0,0,0,0,0,0,1,0,1,0,1,1,0,-8.01866,107.000095,Shannon Davis
518,0.35,0,0,0,0,0,0,0,0,1,0,1,1,1,1,0,-8.221709,112.978775,Trevor Tran
519,0.45000000000000007,1,0,0,0,0,0,1,0,0,0,1,0,0,1,1,-7.715066,109.221765,Veronica Washington
520,0.725,0,0,1,0,0,0,0,0,0,0,1,1,0,1,1,-8.154697,113.651291,William Harmon
521,0.32499999999999996,0,0,0,0,0,0,1,0,0,1,1,0,1,0,1,-6.306755,109.525269,Susan Martinez
522,0.1,1,1,0,0,0,0,0,0,0,1,0,1,1,0,1,-6.306739,106.508692,Kevin Shaw
523,0.025000000000000022,0,0,1,0,0,0,0,0,0,0,1,0,1,0,1,-6.952805,110.601657,Donna Hoover
524,0.19999999999999996,1,0,0,0,0,0,0,1,0,1,1,0,1,1,0,-7.442678,110.67307,Steven Johnson
525,0.275,1,0,0,0,0,0,1,0,0,0,1,0,1,1,0,-6.790086,111.537018,Lisa Gonzalez
526,0.5499999999999999,0,0,0,0,0,0,0,0,1,0,1,1,0,1,1,-8.003221,110.78127,Kimberly Ray
527,0.42499999999999993,0,0,0,1,0,0,0,0,0,0,1,0,1,1,0,-8.033902,112.646534,Anthony Jordan
528,0.9,1,0,0,0,0,0,0,1,0,0,1,1,1,0,1,-6.535559,109.007124,Deborah Alexander
529,0.22499999999999998,0,0,1,0,0,0,0,0,0,0,1,1,1,1,0,-8.267533,113.44079,Lisa Yates
530,0.19999999999999996,1,0,0,1,0,0,0,0,0,1,1,0,1,1,0,-7.282293,108.420125,Briana Hawkins
531,0.8750000000000001,1,0,0,0,0,0,1,0,0,1,1,0,1,1,0,-6.942543,106.718546,Nicholas Bradley Jr.
532,0.15000000000000002,1,0,1,0,0,0,0,0,0,0,1,0,1,1,0,-7.974598,112.155161,Christina Perkins
533,0,0,0,1,0,0,0,0,0,0,0,1,0,1,0,1,-6.557965,107.350242,Tiffany Hines
534,0.25,0,0,0,0,0,0,1,0,0,0,1,1,0,1,1,-6.123636,111.117401,Melissa Steele
535,0.9,0,0,0,0,0,0,0,1,0,0,1,0,1,1,0,-6.543533,109.343291,Joseph Gonzales
536,0.6749999999999999,0,0,0,1,0,0,0,0,0,0,1,0,0,1,1,-7.164218,110.481035,Gerald Cameron
537,0.29999999999999993,1,0,0,0,0,0,0,0,1,0,1,1,0,1,1,-7.529492,109.183548,Jacob Barry
538,0.32499999999999996,0,0,0,1,0,0,0,0,0,0,1,1,0,1,1,-6.392338,111.726358,Donna Miller DVM
539,0.075,0,0,0,0,0,0,1,0,0,0,1,0,1,0,1,-7.514525,108.678236,David Martin
540,0.9,0,1,0,0,0,0,0,0,0,0,1,0,1,1,0,-6.165581,113.677365,Carla Moreno
541,0.6250000000000001,0,0,0,0,0,0,0,0,1,0,1,0,1,1,0,-6.006607,111.8227,Stephanie Medina
542,0,1,0,0,0,0,0,1,0,0,1,0,1,1,0,1,-6.057927,107.731048,Carolyn Allison
543,0.775,1,0,1,0,0,0,0,0,0,0,1,1,0,1,1,-7.236389,112.711847,Bryce Morris
544,0.65,0,0,0,0,0,0,1,0,0,0,1,1,0,1,1,-6.8185,113.10452,Thomas Mendez
545,0.42499999999999993,1,1,0,0,0,0,0,0,0,0,1,1,0,1,1,-7.123123,113.626554,Samantha Morgan
546,0.7999999999999999,1,0,0,0,0,0,0,0,1,0,1,0,0,1,1,-7.435959,111.876316,Hector Thomas
547,0.05,1,0,0,0,0,0,1,0,0,1,0,1,1,0,1,-7.600794,113.109611,Noah Mills
548,0.275,1,1,0,0,0,0,0,0,0,0,1,0,1,1,0,-7.045491,111.889058,Lisa Armstrong
549,0.6749999999999999,1,0,0,1,0,0,0,0,0,1,0,1,1,1,0,-6.494082,110.381017,Kimberly Wells
550,0.7000000000000001,0,0,0,0,0,0,0,0,1,0,1,1,1,1,0,-7.952208,106.128818,Christine Burton
551,0.475,1,0,0,0,0,0,0,0,1,0,1,1,1,0,1,-8.259548,109.340564,Michael Steele
552,0.22499999999999998,1,0,1,0,0,0,0,0,0,0,1,0,1,0,1,-6.79069,108.622433,Jose Valencia
553,0.4999999999999999,1,0,0,0,0,0,0,0,1,1,0,1,0,1,1,-6.8349,109.390527,Joshua Lane
554,0.975,0,1,0,0,0,0,0,0,0,0,1,0,1,1,0,-6.038072,113.327038,Diane Davis
555,0.19999999999999996,1,1,0,0,0,0,0,0,0,1,1,0,0,1,1,-7.052999,107.815034,Adam White
556,0.9500000000000001,0,0,1,0,0,0,0,0,0,1,0,1,1,1,0,-6.453159,108.335675,Karen Andrade
557,0.6,0,0,0,0,0,0,0,1,0,0,1,1,1,0,1,-6.168597,113.08768,Patricia Willis
558,0.7500000000000001,1,0,0,1,0,0,0,0,0,0,1,1,0,1,1,-7.264776,112.499388,Stephanie Smith
559,0.22499999999999998,1,0,0,0,0,0,0,0,1,1,1,0,0,1,1,-6.227597,112.603786,Emily Mccormick
560,0.9,1,0,0,1,0,0,0,0,0,1,0,1,1,0,1,-7.295396,107.26194,Jennifer Miller
561,0.8250000000000001,0,0,0,1,0,0,0,0,0,0,1,1,1,0,1,-7.054451,106.236612,Brian Ballard
562,0.525,0,0,0,0,0,0,0,0,1,1,0,1,1,1,0,-6.178679,106.283388,Mario Sellers
563,0.15000000000000002,1,0,0,0,0,0,0,1,0,0,1,1,0,1,1,-7.2974,108.270574,Jennifer Harris
564,0.42499999999999993,0,0,0,1,0,0,0,0,0,0,1,0,0,1,1,-6.303562,113.03625,Bryan Calderon
565,0.7500000000000001,1,0,0,0,0,0,0,1,0,0,1,1,1,1,0,-7.429198,107.911549,Mark Smith
566,0.8750000000000001,0,0,0,0,0,0,0,0,1,0,1,1,0,1,1,-6.02684,106.729889,Maria Davis
567,0.85,1,0,0,0,0,0,1,0,0,1,0,1,0,1,1,-6.206753,112.884809,John Rosario
568,0.775,0,0,0,0,0,0,1,0,0,0,1,0,1,0,1,-7.680576,107.634354,James Walker
569,0.125,1,0,0,0,0,0,0,0,1,0,1,1,0,1,1,-6.445148,106.609016,Jill Mcguire
570,0.5750000000000001,1,0,0,0,0,0,1,0,0,0,1,0,1,1,0,-8.212702,110.568645,Tracy Hernandez
571,0.9249999999999999,0,1,0,0,0,0,0,0,0,0,1,1,0,1,1,-8.155084,109.593102,Linda Hodges
572,0.7500000000000001,1,0,1,0,0,0,0,0,0,0,1,0,1,1,0,-6.499364,108.540466,Brandi Mclaughlin
573,0.45000000000000007,1,0,0,0,0,0,1,0,0,0,1,1,0,1,1,-6.574284,106.865354,Brandon Smith
574,0.05,1,0,0,1,0,0,0,0,0,0,1,1,0,1,1,-7.282086,107.775788,Madison Pruitt
575,0.075,1,0,0,1,0,0,0,0,0,0,1,0,0,1,1,-6.273087,107.353805,Timothy White
576,0.9249999999999999,0,0,0,0,0,0,0,1,0,0,1,0,0,1,1,-6.182147,111.717097,Julie Crawford
577,0.4999999999999999,0,0,0,1,0,0,0,0,0,0,1,1,0,1,1,-6.066894,111.793134,Patricia Sims
578,0.9500000000000001,0,0,0,1,0,0,0,0,0,0,1,1,0,1,1,-6.635494,111.312166,Barbara Fisher
579,0.5499999999999999,1,0,0,0,0,0,0,1,0,0,1,0,1,1,0,-6.542033,107.350438,Robin Mccullough
580,0.42499999999999993,1,0,0,0,0,0,0,1,0,0,1,1,0,1,1,-8.255203,109.841733,Tammy Cross
581,0.7999999999999999,0,0,1,0,0,0,0,0,0,0,1,0,0,1,1,-8.209856,113.931128,Angela White PhD
582,0.025000000000000022,0,0,1,0,0,0,0,0,0,0,1,1,1,0,1,-7.859173,110.128019,Elizabeth Rodriguez
583,0.17499999999999993,0,1,0,0,0,0,0,0,0,0,1,1,0,1,1,-6.148794,111.496619,Mark Phillips
584,0.15000000000000002,0,0,0,0,0,0,1,0,0,0,1,0,0,1,1,-7.524029,107.477985,Yolanda Finley
585,0.725,1,1,0,0,0,0,0,0,0,0,1,0,1,0,1,-6.448666,110.084156,Natalie Perez
586,0.075,1,0,0,0,0,0,0,0,1,1,0,1,1,0,1,-6.984091,106.60065,Amy Frye
587,0,1,0,1,0,0,0,0,0,0,0,1,0,1,0,1,-6.757915,112.952667,Brittney Smith
588,0.8750000000000001,1,0,0,0,0,0,0,0,1,0,1,0,1,0,1,-7.433979,105.920884,Matthew Clark
589,0.32499999999999996,0,1,0,0,0,0,0,0,0,0,1,1,1,1,0,-7.695009,106.501041,Stephen Aguilar
590,0.4,1,0,0,0,0,0,0,0,1,1,0,1,1,1,0,-6.400325,107.513178,Michelle Martin
591,0.6250000000000001,1,0,0,1,0,0,0,0,0,0,1,1,1,0,1,-8.159831,109.959758,Anna Lin
592,0.975,0,0,0,0,0,0,0,0,1,0,1,1,1,1,0,-6.632982,112.045616,Eric Murray
593,0.9,0,0,1,0,0,0,0,0,0,0,1,0,1,1,0,-6.088365,107.666004,Eric Hooper
594,0.45000000000000007,0,0,0,0,0,0,0,1,0,0,1,0,1,1,0,-6.471332,110.931052,Elizabeth Willis
595,1,0,0,0,0,0,0,0,0,1,0,1,1,0,1,1,-6.667392,106.797003,Eric Smith
596,0.075,0,0,0,0,0,0,1,0,0,0,1,1,0,1,1,-6.820301,107.011044,Joshua Mckenzie
597,0.32499999999999996,0,1,0,0,0,0,0,0,0,0,1,0,1,1,0,-6.003538,111.461763,Jessica Figueroa
598,0.025000000000000022,0,1,0,0,0,0,0,0,0,0,1,1,1,0,1,-7.211404,110.883259,Jeremy Reyes
599,0.9500000000000001,1,0,0,1,0,0,0,0,0,0,1,1,0,1,1,-6.176582,106.783257,Amy Levine
600,0.7999999999999999,0,0,0,0,0,0,0,1,0,0,1,1,1,0,1,-6.587313,112.681615,Nicholas Li
601,0.6749999999999999,0,0,1,0,0,0,0,0,0,0,1,0,1,0,1,-7.270948,109.765974,Alicia Young
602,0.025000000000000022,0,1,0,0,0,0,0,0,0,0,1,0,1,0,1,-6.536058,107.958705,Brian Jarvis
603,0.25,0,0,0,0,0,0,0,1,0,0,1,1,1,1,0,-7.453518,107.249707,Shawn Gonzalez
604,0.25,0,0,0,0,0,0,0,1,0,1,1,0,1,0,1,-6.533806,113.245702,Dawn Hamilton
605,0.15000000000000002,0,0,1,0,0,0,0,0,0,0,1,0,0,1,1,-6.455228,113.299463,Diane Bray
606,0,0,0,0,0,0,0,0,0,1,0,1,1,1,0,1,-7.647207,108.379005,Dylan Taylor
607,0.17499999999999993,0,0,0,0,0,0,0,0,1,0,1,0,1,1,0,-6.541935,110.760452,Kara Reynolds
608,0.275,0,0,0,0,0,0,0,1,0,0,1,0,1,1,0,-7.413083,112.296025,Sandra Duran
609,0.275,0,0,0,0,0,0,0,0,1,0,1,1,1,1,0,-8.088092,109.257533,Fernando Black
610,0.85,0,0,0,0,0,0,1,0,0,0,1,1,1,0,1,-7.164033,109.315098,Randy White
611,0.32499999999999996,0,0,0,0,0,0,0,0,1,1,0,1,1,0,1,-7.590346,112.759381,Natalie Decker
612,0.6749999999999999,0,0,0,0,0,0,1,0,0,1,0,1,1,1,0,-6.527144,111.815245,Robert Robbins
613,0.19999999999999996,1,0,0,0,0,0,0,1,0,1,0,1,1,0,1,-7.495018,110.930278,Angela Stewart
614,0.025000000000000022,0,0,1,0,0,0,0,0,0,0,1,0,0,1,1,-6.28239,113.788388,Bradley Sheppard
615,0.525,0,0,0,1,0,0,0,0,0,0,1,1,1,1,0,-7.614372,107.13642,Andrew Gray
616,0.85,0,0,1,0,0,0,0,0,0,0,1,0,1,1,0,-7.805327,110.806513,Alicia Thomas
617,0.22499999999999998,0,0,0,0,0,0,0,0,1,0,1,1,1,1,0,-6.824996,108.868583,Kathy Miller
618,0.5750000000000001,1,0,0,0,0,0,0,1,0,1,1,0,0,1,1,-7.445618,106.335292,Caitlin Hoffman
619,1,0,0,1,0,0,0,0,0,0,0,1,1,1,0,1,-8.077745,112.213759,Whitney Williams
620,0.6250000000000001,0,0,1,0,0,0,0,0,0,0,1,1,0,1,1,-7.210798,108.629833,Gary Martinez
621,0.725,1,0,1,0,0,0,0,0,0,0,1,0,0,1,1,-6.183686,113.706639,Colleen Oconnell
622,0.35,1,0,1,0,0,0,0,0,0,0,1,1,1,1,0,-7.586558,107.838809,Michael Adams
623,0.42499999999999993,0,0,0,0,0,0,0,0,1,0,1,1,0,1,1,-7.815966,106.912373,Courtney Benson DVM
624,0.125,0,1,0,0,0,0,0,0,0,1,0,1,0,1,1,-6.743987,112.600082,Heather Dorsey
625,0.6749999999999999,1,0,0,0,0,0,1,0,0,0,1,0,1,0,1,-6.345991,111.244036,Olivia Sanchez MD
626,0.775,1,0,0,0,0,0,1,0,0,0,1,1,0,1,1,-7.824368,111.046142,Miguel Adkins
627,0.6250000000000001,1,0,0,0,0,0,0,0,1,0,1,1,1,0,1,-7.533619,109.483272,Adam Watson
628,0.42499999999999993,1,0,0,0,0,0,1,0,0,0,1,0,1,0,1,-8.090526,108.271867,Joshua Moore
629,0.375,0,0,0,0,0,0,1,0,0,1,0,1,1,0,1,-6.943518,110.697815,Heather Hanna
630,0.125,1,1,0,0,0,0,0,0,0,0,1,1,0,1,1,-8.257186,106.550394,Kim Ferguson
631,0.9500000000000001,1,0,1,0,0,0,0,0,0,0,1,1,1,1,0,-6.763725,113.110776,Sherry Thompson
632,0.15000000000000002,1,0,0,0,0,0,0,1,0,0,1,0,1,0,1,-6.415231,111.062876,Julie Cooper
633,0,0,0,1,0,0,0,0,0,0,0,1,0,1,1,0,-7.512629,110.186048,Stephanie Brooks
634,0.5750000000000001,1,1,0,0,0,0,0,0,0,0,1,0,1,0,1,-6.176978,111.611957,Jacqueline Massey
635,0.5499999999999999,0,0,0,0,0,0,1,0,0,0,1,0,1,0,1,-7.360844,108.812709,James Garcia
636,0.775,1,1,0,0,0,0,0,0,0,0,1,0,1,1,0,-7.174798,106.168496,Donald Gonzalez
637,0.9,0,0,0,1,0,0,0,0,0,1,1,0,1,1,0,-6.885325,107.003162,Cheryl Weber
638,0.85,1,0,1,0,0,0,0,0,0,0,1,1,0,1,1,-7.767363,111.689724,Cody Benson
639,1,0,1,0,0,0,0,0,0,0,0,1,1,0,1,1,-6.895531,113.695398,Daniel Byrd
640,0.32499999999999996,0,0,1,0,0,0,0,0,0,0,1,1,1,0,1,-8.267316,109.123556,David Carey
641,0.32499999999999996,0,1,0,0,0,0,0,0,0,1,0,1,1,1,0,-7.952278,112.166341,Matthew Bright
642,0.8750000000000001,0,0,0,0,0,0,1,0,0,0,1,1,0,1,1,-7.994189,106.193412,Matthew Larson
643,0.22499999999999998,1,1,0,0,0,0,0,0,0,0,1,0,0,1,1,-7.946302,112.919632,April Arroyo
644,0.6,0,0,1,0,0,0,0,0,0,0,1,0,1,0,1,-6.332336,110.923037,Julie Duncan
645,0.05,0,1,0,0,0,0,0,0,0,1,0,1,1,0,1,-7.079919,113.384035,Anita Rose
646,0.775,0,0,0,0,0,0,0,0,1,0,1,0,0,1,1,-6.216611,110.672338,Stephanie Herring
647,0.7500000000000001,0,0,0,0,0,0,1,0,0,0,1,1,1,0,1,-7.667963,112.296065,Claudia Mclaughlin
648,0.5750000000000001,0,0,0,0,0,0,0,0,1,1,0,1,1,1,0,-7.076325,110.113386,Chad Rodriguez
649,0.6,1,0,1,0,0,0,0,0,0,0,1,1,0,1,1,-7.049337,109.047753,Matthew Haas
650,0.025000000000000022,1,0,0,1,0,0,0,0,0,1,0,1,0,1,1,-6.320157,110.856899,Bradley Norris
651,0.075,1,0,0,1,0,0,0,0,0,0,1,1,1,1,0,-6.258768,109.009498,Dana Gutierrez
652,0.275,1,0,0,0,0,0,0,0,1,0,1,1,1,0,1,-7.167859,109.982677,Stacey Gonzalez
653,0.35,1,0,1,0,0,0,0,0,0,1,1,0,0,1,1,-6.676236,106.715842,Elijah Bryant
654,0.7999999999999999,0,0,1,0,0,0,0,0,0,0,1,1,1,1,0,-7.004749,109.901416,Stacey Young
655,0.22499999999999998,1,0,0,1,0,0,0,0,0,0,1,0,1,0,1,-6.612766,107.091276,George Medina
656,0.65,0,0,0,0,0,0,1,0,0,0,1,0,0,1,1,-6.210293,111.10123,Emily Cook
657,0.5750000000000001,1,0,0,0,0,0,0,1,0,1,0,1,1,1,0,-7.607407,106.666435,Dr. Jared Gutierrez MD
658,0.42499999999999993,1,0,1,0,0,0,0,0,0,0,1,0,1,1,0,-6.779822,109.965249,Mary Gonzales
659,0.1,1,0,0,1,0,0,0,0,0,0,1,0,0,1,1,-6.673388,110.647571,Kevin English
660,0.6,0,0,0,0,0,0,0,0,1,0,1,0,1,0,1,-6.153842,107.539542,Tammy Williams
661,0.42499999999999993,1,1,0,0,0,0,0,0,0,1,1,0,1,1,0,-7.171692,113.445752,Stacy Martin
662,0.4999999999999999,1,0,0,1,0,0,0,0,0,0,1,0,1,1,0,-6.476331,108.251085,Patricia Stark
663,0.975,0,0,0,0,0,0,0,1,0,1,1,0,1,1,0,-6.716193,106.865252,Joshua Hardin
664,0.35,0,0,0,0,0,0,1,0,0,1,0,1,1,0,1,-7.46308,109.221296,Tina Haas
665,0.375,0,1,0,0,0,0,0,0,0,0,1,1,0,1,1,-6.495,110.020009,Jimmy Vaughn
666,0.275,1,0,0,1,0,0,0,0,0,0,1,0,1,0,1,-7.554804,113.783321,Julie Camacho
667,0.8250000000000001,1,0,1,0,0,0,0,0,0,0,1,0,1,1,0,-6.070681,106.006217,Kevin Randall
668,0.45000000000000007,0,0,0,1,0,0,0,0,0,0,1,1,0,1,1,-7.210144,108.69555,Jeremiah Valenzuela
669,0.05,1,0,0,0,0,0,0,1,0,0,1,0,0,1,1,-7.987108,110.358643,Zachary Brock
670,0.475,1,0,0,0,0,0,1,0,0,0,1,1,0,1,1,-7.308935,106.659889,Darryl Green
671,0.4999999999999999,1,0,0,1,0,0,0,0,0,1,1,0,1,1,0,-6.353137,108.818044,Xavier Bailey
672,0.25,0,0,0,0,0,0,0,0,1,1,1,0,1,1,0,-8.223138,108.307149,Jill Wilkerson
673,0.15000000000000002,0,0,0,0,0,0,0,0,1,0,1,1,1,0,1,-6.101123,108.477762,Veronica Mosley
674,0.15000000000000002,1,0,0,0,0,0,1,0,0,1,0,1,1,1,0,-6.989732,106.249743,Jonathan Campos
675,0.375,0,0,0,1,0,0,0,0,0,0,1,0,1,1,0,-6.491681,112.682344,Vanessa Smith
676,0.22499999999999998,0,0,1,0,0,0,0,0,0,0,1,1,1,1,0,-8.176329,109.175626,Darryl Humphrey
677,0.42499999999999993,1,0,0,1,0,0,0,0,0,1,1,0,0,1,1,-7.809546,109.687354,Amanda Rush
678,0.5499999999999999,0,0,0,0,0,0,1,0,0,1,0,1,1,0,1,-7.569707,111.254414,John Villarreal
679,0.85,1,1,0,0,0,0,0,0,0,0,1,0,1,0,1,-8.104647,107.529159,Angela Mccarty
680,0.025000000000000022,0,0,0,1,0,0,0,0,0,0,1,1,0,1,1,-7.128649,107.579,Justin Jackson MD
681,0.725,0,0,0,0,0,0,0,0,1,0,1,1,1,0,1,-8.238543,107.746226,Christopher Butler
682,0.725,1,0,0,0,0,0,0,1,0,0,1,0,0,1,1,-7.292536,108.609582,Amanda Hayes
683,0.9,0,1,0,0,0,0,0,0,0,0,1,0,1,0,1,-6.404506,108.44967,Jerry Combs
684,0.1,1,1,0,0,0,0,0,0,0,0,1,1,1,1,0,-6.3268,107.205106,Michael Leonard
685,0.8750000000000001,0,0,1,0,0,0,0,0,0,1,0,1,1,1,0,-6.707675,112.746929,Alexis Lambert
686,0.975,0,0,0,0,0,0,0,1,0,0,1,0,1,1,0,-7.65165,109.478159,Billy Miller
687,0.6749999999999999,0,0,0,1,0,0,0,0,0,0,1,0,1,0,1,-8.188734,106.647627,Dylan White
688,0.375,0,0,0,0,0,0,1,0,0,0,1,0,1,0,1,-6.216236,111.158486,Michael Collins
689,0.125,0,0,0,0,0,0,1,0,0,0,1,0,0,1,1,-6.787409,106.908277,James Gardner
690,0.45000000000000007,1,0,0,1,0,0,0,0,0,0,1,1,0,1,1,-7.485705,111.054305,Mark Sanchez
691,0.9249999999999999,1,0,0,1,0,0,0,0,0,0,1,0,1,0,1,-7.645142,113.599352,Christina Foster
692,0.15000000000000002,1,0,0,0,0,0,1,0,0,0,1,1,1,1,0,-6.721016,111.941478,Aaron Gonzalez
693,0.35,1,0,0,0,0,0,1,0,0,0,1,1,0,1,1,-7.76895,107.910392,Patricia Whitehead
694,0.5750000000000001,0,0,0,0,0,0,0,1,0,0,1,1,1,1,0,-7.354627,109.660866,Kayla Myers
695,0.19999999999999996,0,0,0,0,0,0,1,0,0,0,1,0,1,0,1,-7.851281,106.242677,Kimberly Ballard
696,0.4999999999999999,0,0,0,1,0,0,0,0,0,0,1,0,1,0,1,-7.772368,111.936238,Rodney Lynch
697,0.725,1,1,0,0,0,0,0,0,0,0,1,1,1,1,0,-6.481551,112.649975,Mary Mosley
698,0.775,1,0,1,0,0,0,0,0,0,0,1,0,0,1,1,-8.113555,105.973374,Ricardo Armstrong
699,0.7500000000000001,0,0,0,0,0,0,1,0,0,0,1,1,1,1,0,-6.22901,108.903621,Richard Lee
700,0.17499999999999993,0,0,0,1,0,0,0,0,0,1,0,1,0,1,1,-8.246949,112.924881,Krystal Warren
701,0.975,0,0,0,0,0,0,1,0,0,0,1,1,1,0,1,-7.475994,113.420389,Marilyn Bowman
702,0,0,0,1,0,0,0,0,0,0,0,1,1,1,0,1,-6.049397,108.509411,Patricia Clark
703,0.9500000000000001,1,0,0,0,0,0,1,0,0,0,1,0,1,0,1,-6.34946,113.277221,Jill Collins
704,0.125,0,0,1,0,0,0,0,0,0,1,1,0,0,1,1,-8.10846,108.736852,Bobby Lynn
705,0.4,1,0,0,0,0,0,0,1,0,0,1,0,1,1,0,-8.146454,110.963876,Dawn English
706,0.7999999999999999,0,0,0,0,0,0,1,0,0,0,1,1,1,0,1,-6.404294,110.949237,Linda Moreno
707,0.17499999999999993,0,1,0,0,0,0,0,0,0,1,0,1,1,1,0,-6.568428,108.829856,Steven Lee
708,0.9500000000000001,1,0,0,1,0,0,0,0,0,0,1,1,1,1,0,-7.570433,109.561302,Stephanie Rowe
709,0.9500000000000001,0,0,0,0,0,0,0,1,0,0,1,0,1,0,1,-7.75755,112.742173,Nicholas Tran
710,0.775,0,0,0,0,0,0,0,0,1,0,1,1,1,0,1,-6.669593,112.319345,Mark Black
711,0.9,1,0,1,0,0,0,0,0,0,0,1,0,0,1,1,-8.038307,109.196934,Duane Parrish
712,0.725,1,0,0,1,0,0,0,0,0,1,0,1,0,1,1,-6.535465,112.883282,Emily Salazar
713,0.075,0,0,0,0,0,0,0,0,1,1,0,1,1,0,1,-6.52727,106.182233,Jeffery Coleman
714,0.975,0,0,0,0,0,0,0,1,0,0,1,0,0,1,1,-6.656456,112.82654,Matthew White
715,0.4,1,0,0,1,0,0,0,0,0,0,1,0,0,1,1,-8.103754,113.404388,Heather Stewart
716,0.17499999999999993,0,0,0,0,0,0,1,0,0,0,1,1,0,1,1,-6.210928,109.212618,Tiffany Pope
717,0.25,0,0,1,0,0,0,0,0,0,0,1,0,1,1,0,-6.549057,108.772996,George Wright
718,0.9,1,0,0,0,0,0,0,1,0,0,1,0,1,0,1,-7.488676,109.078755,Frances Young
719,0.6250000000000001,1,0,0,0,0,0,1,0,0,0,1,1,0,1,1,-8.060844,108.79812,Morgan Murray
720,0.275,1,0,0,0,0,0,1,0,0,0,1,1,0,1,1,-8.211964,108.424619,Matthew Thornton
721,0.7000000000000001,0,0,0,0,0,0,0,1,0,1,0,1,1,1,0,-8.27583,112.538128,Michael Jackson
722,0.275,1,1,0,0,0,0,0,0,0,0,1,0,0,1,1,-7.31522,112.104379,Anthony Pierce
723,0.375,0,0,0,0,0,0,0,1,0,0,1,0,0,1,1,-6.519488,113.066454,Jackson Wright
724,0.475,0,0,1,0,0,0,0,0,0,1,0,1,0,1,1,-8.007604,108.806067,April Miller
725,0.1,0,0,1,0,0,0,0,0,0,0,1,1,0,1,1,-6.174275,109.426397,Linda Levine
726,0.22499999999999998,0,0,0,0,0,0,1,0,0,0,1,0,0,1,1,-6.965865,109.400656,Laura Dalton
727,0.22499999999999998,1,0,0,0,0,0,1,0,0,0,1,1,0,1,1,-7.153676,107.46615,Michael Shepard
728,0.42499999999999993,1,0,0,0,0,0,0,1,0,0,1,0,0,1,1,-6.520809,106.870721,Angela Cervantes
729,0.17499999999999993,0,0,0,0,0,0,1,0,0,1,0,1,1,0,1,-7.653951,105.951711,Nicole Salazar
730,0.6,1,0,1,0,0,0,0,0,0,0,1,1,1,1,0,-7.157426,112.758723,Monica Frost MD
731,0.525,0,0,0,0,0,0,1,0,0,0,1,1,1,0,1,-6.885057,109.311201,Judith James
732,0.9,0,0,0,0,0,0,1,0,0,0,1,1,1,1,0,-8.059377,108.349621,Ryan Henry
733,0.275,1,0,1,0,0,0,0,0,0,0,1,0,0,1,1,-8.114588,108.173401,Amy Brown
734,0.8750000000000001,1,0,0,1,0,0,0,0,0,0,1,1,1,0,1,-7.756731,106.84419,Hector Tran
735,0.075,0,0,1,0,0,0,0,0,0,0,1,0,1,0,1,-7.175735,112.090795,Sharon Wiley
736,0.9,0,1,0,0,0,0,0,0,0,0,1,0,1,0,1,-6.92885,111.304798,Lauren Davis
737,0.6,1,1,0,0,0,0,0,0,0,1,1,0,0,1,1,-7.843936,113.426716,Eric Phillips
738,0.075,0,0,0,0,0,0,0,1,0,0,1,1,0,1,1,-7.023373,110.636589,Tina Henderson
739,0.05,0,1,0,0,0,0,0,0,0,0,1,1,0,1,1,-6.56997,110.125164,Margaret Perez
740,0.9,0,0,0,0,0,0,0,0,1,0,1,1,1,0,1,-6.203467,108.631823,Stephen Smith
741,0.42499999999999993,0,0,1,0,0,0,0,0,0,0,1,0,0,1,1,-6.553655,112.836685,Shannon Frank
742,0.85,0,0,0,0,0,0,1,0,0,1,0,1,0,1,1,-6.435774,112.035801,Holly Johnson
743,0.32499999999999996,1,0,0,0,0,0,0,0,1,0,1,0,1,0,1,-6.464504,111.019556,Michael Rodriguez
744,0.15000000000000002,0,0,0,0,0,0,0,0,1,1,0,1,1,0,1,-8.235871,106.542483,Dana Green
745,0.4999999999999999,0,0,1,0,0,0,0,0,0,1,0,1,1,1,0,-6.204446,113.188787,Victoria Wright
746,0.475,1,0,1,0,0,0,0,0,0,0,1,0,1,1,0,-8.073026,106.700337,Jason Wagner
747,0.7500000000000001,1,0,0,0,0,0,1,0,0,0,1,0,1,1,0,-8.137471,113.966964,Cynthia Chan
748,0.29999999999999993,1,0,1,0,0,0,0,0,0,0,1,0,1,1,0,-7.126964,111.381969,Erin Jones MD
749,0.8750000000000001,0,0,0,0,0,0,0,0,1,0,1,1,0,1,1,-6.438561,109.021212,Jody Robbins
750,0.19999999999999996,0,0,1,0,0,0,0,0,0,0,1,1,0,1,1,-6.1988,109.341223,Nichole Miller
751,0.22499999999999998,0,0,0,1,0,0,0,0,0,0,1,0,1,1,0,-6.153576,107.641366,Ronald Rojas
752,0.45000000000000007,0,1,0,0,0,0,0,0,0,0,1,0,1,0,1,-6.768428,108.185872,Emily Mendez
753,0.6,0,0,1,0,0,0,0,0,0,0,1,1,1,0,1,-6.514054,109.094546,Jennifer Phillips
754,0.7999999999999999,0,0,0,1,0,0,0,0,0,0,1,0,0,1,1,-6.647729,113.866424,Lisa Lyons
755,0.6250000000000001,1,0,0,0,0,0,0,0,1,0,1,0,0,1,1,-7.541114,110.55775,Kimberly Waller
756,0.42499999999999993,0,0,0,1,0,0,0,0,0,0,1,1,1,1,0,-7.010476,106.224988,Michelle Lawrence
757,0.7500000000000001,1,0,0,0,0,0,1,0,0,0,1,0,1,1,0,-6.679993,105.948096,Tammy Hunt
758,0.42499999999999993,1,1,0,0,0,0,0,0,0,0,1,0,1,0,1,-6.87356,108.341347,James Werner
759,1,1,0,0,1,0,0,0,0,0,0,1,1,1,0,1,-7.860358,110.531374,Troy Quinn
760,0.975,0,0,0,0,0,0,0,1,0,0,1,0,1,0,1,-7.576994,108.966831,Mr. Timothy Finley
761,0.9249999999999999,0,0,0,0,0,0,0,0,1,0,1,1,1,1,0,-6.89308,112.93975,Lucas Clark
762,0.775,0,1,0,0,0,0,0,0,0,0,1,1,0,1,1,-6.983094,112.528692,Tammy Myers
763,0.525,1,0,0,0,0,0,0,0,1,0,1,1,1,0,1,-8.118691,111.782834,Monica Lloyd
764,0.35,0,0,0,0,0,0,1,0,0,0,1,0,1,0,1,-8.272866,110.711179,Douglas Richardson
765,0.7000000000000001,1,0,1,0,0,0,0,0,0,0,1,0,1,0,1,-8.008418,108.496632,Teresa Hernandez
766,0.85,1,0,0,0,0,0,0,0,1,0,1,1,1,0,1,-7.596976,113.037971,Bobby Richard
767,0.35,0,0,0,0,0,0,0,0,1,0,1,1,1,1,0,-6.74165,112.507247,Alyssa Greene
768,0.4999999999999999,1,0,1,0,0,0,0,0,0,1,0,1,1,1,0,-6.452158,109.210492,Lindsey Hobbs
769,0.025000000000000022,1,0,0,0,0,0,0,1,0,0,1,1,1,1,0,-7.935395,111.599117,Holly Green
770,0.5499999999999999,0,0,0,0,0,0,0,1,0,1,1,0,0,1,1,-8.177623,110.48493,David Grimes
771,0.725,1,1,0,0,0,0,0,0,0,0,1,1,1,0,1,-8.218789,109.012105,Thomas Hester
772,1,1,0,0,1,0,0,0,0,0,1,1,0,0,1,1,-7.535494,107.235922,Miguel Jackson
773,0.6,0,0,1,0,0,0,0,0,0,0,1,1,1,0,1,-6.26872,111.206335,Kimberly Jones
774,0.6749999999999999,0,0,0,0,0,0,0,1,0,0,1,0,0,1,1,-7.925558,110.293639,Jason Lewis
775,0.32499999999999996,0,0,0,0,0,0,0,0,1,0,1,1,1,1,0,-6.810541,106.236663,Brittany Norris
776,0.45000000000000007,0,0,0,1,0,0,0,0,0,1,1,0,1,1,0,-6.654953,113.885457,Leslie Solis
777,0,1,1,0,0,0,0,0,0,0,0,1,1,1,1,0,-7.12328,111.011986,Jennifer Rogers
778,0.7000000000000001,1,0,1,0,0,0,0,0,0,0,1,0,1,1,0,-7.558107,108.74077,Pamela Carson
779,0.32499999999999996,0,0,0,0,0,0,0,1,0,0,1,1,1,0,1,-6.570128,108.679456,Jason Keith
780,0.25,0,0,1,0,0,0,0,0,0,0,1,0,0,1,1,-6.052184,107.664986,Heather Kaufman
781,0.7000000000000001,0,0,0,0,0,0,1,0,0,1,0,1,1,1,0,-6.64501,106.323803,Richard Wade
782,0.125,1,0,0,0,0,0,1,0,0,0,1,0,1,1,0,-8.078916,110.134778,Ryan Tanner
783,0.525,1,0,0,0,0,0,1,0,0,0,1,1,1,0,1,-6.236874,111.53597,Dorothy Mejia
784,0.8250000000000001,1,0,0,0,0,0,0,0,1,0,1,1,0,1,1,-7.946553,113.390212,Ashley Jackson
785,0.475,1,0,1,0,0,0,0,0,0,0,1,1,1,1,0,-7.721824,107.71176,Ashley Hunt
786,0.475,1,0,0,0,0,0,0,1,0,0,1,0,0,1,1,-7.804584,113.703009,Kelly Medina
787,0.19999999999999996,1,1,0,0,0,0,0,0,0,1,0,1,1,0,1,-6.273524,106.650495,Bobby Williams
788,0.975,0,0,0,0,0,0,0,0,1,0,1,0,0,1,1,-6.276989,108.351337,Cindy Miranda
789,0.9500000000000001,0,0,0,0,0,0,1,0,0,1,0,1,1,1,0,-6.426104,112.137835,Christopher Garcia
790,0.4,1,0,0,1,0,0,0,0,0,1,0,1,0,1,1,-8.036222,108.992921,Monique Anderson
791,0.275,1,0,0,0,0,0,0,0,1,0,1,1,1,0,1,-7.736433,106.317017,Anna Collins
792,0.5750000000000001,1,0,0,0,0,0,1,0,0,1,1,0,1,1,0,-7.664515,108.863145,Cindy Grimes
793,0.275,1,0,0,0,0,0,0,0,1,0,1,1,0,1,1,-7.02522,111.771321,Eduardo Howell
794,0.975,1,0,1,0,0,0,0,0,0,0,1,0,1,0,1,-8.275397,112.482382,Kim Smith
795,0.525,1,0,0,0,0,0,0,1,0,0,1,0,1,1,0,-7.111217,106.209327,Cynthia Andrade
796,1,0,0,0,1,0,0,0,0,0,0,1,0,1,0,1,-7.043849,109.314627,Jessica Solomon
797,0.32499999999999996,1,0,1,0,0,0,0,0,0,0,1,1,1,1,0,-6.076934,106.561596,Brandon Martinez
798,0.6749999999999999,1,0,0,0,0,0,0,1,0,0,1,0,1,0,1,-6.375486,113.378328,Travis Hall
799,0.1,1,0,1,0,0,0,0,0,0,0,1,0,0,1,1,-6.650369,108.891709,Mary Johnson
800,0.9249999999999999,0,0,0,0,0,0,0,0,1,0,1,1,1,1,0,-7.066167,112.732859,Jeffrey Gomez
801,0.17499999999999993,0,0,0,1,0,0,0,0,0,0,1,1,1,0,1,-6.306842,106.065489,Brittany Washington
802,0.4999999999999999,0,0,0,0,0,0,1,0,0,0,1,0,1,1,0,-7.825478,109.403805,Jennifer Mullins
803,0.4,1,0,0,1,0,0,0,0,0,1,0,1,1,1,0,-6.462045,106.571168,William Munoz
804,0,1,0,0,0,0,0,0,1,0,0,1,0,1,0,1,-7.859431,109.160915,Shannon Wright
805,0.7000000000000001,1,0,0,0,0,0,0,1,0,0,1,1,1,1,0,-7.393562,110.307052,Danielle Dyer PhD
806,0.29999999999999993,0,0,0,0,0,0,1,0,0,0,1,0,1,0,1,-7.302984,109.871846,Janice Evans
807,0.15000000000000002,0,0,0,0,0,0,0,1,0,0,1,1,1,0,1,-7.496734,109.722593,William Brown
808,0.975,1,0,0,1,0,0,0,0,0,0,1,0,1,1,0,-7.734975,108.763798,Elizabeth Jackson
809,0.42499999999999993,0,1,0,0,0,0,0,0,0,1,1,0,0,1,1,-7.826014,113.578866,Joshua Cox
810,0.4999999999999999,1,0,0,0,0,0,0,1,0,0,1,1,1,1,0,-8.225614,112.316977,Laurie Vang
811,0.775,1,1,0,0,0,0,0,0,0,0,1,0,1,1,0,-8.019491,108.650121,Derek Sandoval
812,0.275,1,0,1,0,0,0,0,0,0,1,0,1,0,1,1,-6.639485,106.982836,Anthony Conley
813,0.725,1,0,0,0,0,0,1,0,0,0,1,0,0,1,1,-6.026828,111.174839,Dawn Rodriguez
814,0.15000000000000002,1,0,0,0,0,0,1,0,0,0,1,1,0,1,1,-7.408839,106.109763,Olivia Powell
815,0.05,0,0,0,1,0,0,0,0,0,1,0,1,1,0,1,-7.578671,108.878591,Kevin Campbell
816,0.7500000000000001,0,0,0,0,0,0,0,0,1,0,1,1,1,0,1,-8.146757,109.492822,Stephen Clark
817,0.45000000000000007,1,0,1,0,0,0,0,0,0,0,1,0,0,1,1,-7.079044,108.120176,Meagan Harrison
818,0.9249999999999999,1,0,0,0,0,0,0,1,0,0,1,1,1,0,1,-7.284843,108.200834,Christian Lewis
819,0.7999999999999999,1,0,0,0,0,0,0,0,1,0,1,1,0,1,1,-6.303927,109.098841,Christopher Collins
820,0.4,1,0,0,1,0,0,0,0,0,0,1,1,1,0,1,-6.971179,113.631196,Brandy Miller
821,0.05,1,1,0,0,0,0,0,0,0,0,1,0,1,1,0,-7.135531,112.072526,Jonathan Hendricks
822,0.65,1,0,0,0,0,0,1,0,0,0,1,0,0,1,1,-7.539548,106.91642,Danielle Salazar
823,0.275,1,0,0,0,0,0,1,0,0,0,1,0,0,1,1,-7.759152,107.565968,Catherine Chan
824,0.9249999999999999,0,0,1,0,0,0,0,0,0,0,1,1,0,1,1,-7.972386,111.545426,Alan Adams
825,0.42499999999999993,1,0,0,1,0,0,0,0,0,0,1,1,1,0,1,-7.504441,111.974689,Lauren Allen
826,0.275,0,0,0,0,0,0,1,0,0,0,1,1,0,1,1,-7.472437,108.960318,John Richardson
827,0.7999999999999999,1,0,0,0,0,0,0,0,1,0,1,1,1,0,1,-7.72902,109.334057,Tracy Vazquez
828,0.525,0,0,0,1,0,0,0,0,0,0,1,1,0,1,1,-7.593236,106.275393,Nicole Lopez
829,0.975,1,0,0,0,0,0,0,1,0,0,1,1,1,1,0,-7.96162,106.245256,Kimberly Lopez
830,0.65,0,1,0,0,0,0,0,0,0,0,1,0,1,1,0,-6.334178,108.117967,John Dickerson Jr.
831,0.17499999999999993,1,1,0,0,0,0,0,0,0,0,1,1,0,1,1,-6.24334,106.274153,Catherine James
832,0.8250000000000001,0,0,0,1,0,0,0,0,0,0,1,1,1,1,0,-7.350333,109.610015,Suzanne Vance
833,0.45000000000000007,0,0,0,0,0,0,1,0,0,1,0,1,1,1,0,-7.312028,110.693627,Christopher Jackson
834,0.6250000000000001,0,0,0,0,0,0,0,0,1,1,0,1,1,1,0,-7.926138,112.981753,Gabriela Jones
835,0.975,1,0,0,0,0,0,1,0,0,0,1,1,1,1,0,-6.73067,110.515772,Anthony Tanner
836,0.6749999999999999,1,0,0,0,0,0,0,0,1,0,1,0,0,1,1,-7.74608,110.526633,Glenn Hernandez
837,0.22499999999999998,1,1,0,0,0,0,0,0,0,0,1,1,0,1,1,-6.751033,107.302419,Andrea Schmidt
838,0.65,1,0,0,1,0,0,0,0,0,1,1,0,1,0,1,-7.301712,106.62491,Cynthia Miller
839,0.6250000000000001,0,1,0,0,0,0,0,0,0,0,1,1,1,1,0,-7.19629,109.735526,Jamie Salazar
840,0.7999999999999999,0,1,0,0,0,0,0,0,0,0,1,0,0,1,1,-7.727847,108.398977,David Reed
841,0.775,0,0,0,1,0,0,0,0,0,0,1,1,0,1,1,-6.533269,106.934581,Diana Jones
842,0.9,1,0,0,0,0,0,0,1,0,0,1,1,0,1,1,-6.781095,110.531578,Kyle Arnold
843,0.6,0,0,0,0,0,0,0,0,1,0,1,0,0,1,1,-7.319916,113.001991,Samuel Stein
844,0.7999999999999999,1,0,1,0,0,0,0,0,0,1,1,0,0,1,1,-6.830366,112.467973,Elizabeth Clayton
845,0.975,1,0,0,0,0,0,0,0,1,0,1,0,1,1,0,-7.140713,113.067056,Christine Simmons
846,0.8250000000000001,0,0,1,0,0,0,0,0,0,0,1,0,0,1,1,-6.083541,113.524759,Traci Robbins
847,0.4999999999999999,1,0,0,0,0,0,0,0,1,1,0,1,1,1,0,-7.400164,106.902478,Don Graham
848,0.6250000000000001,1,0,0,1,0,0,0,0,0,1,0,1,0,1,1,-6.008122,109.391158,Kristina Anderson
849,0.375,0,0,0,1,0,0,0,0,0,1,1,0,0,1,1,-7.696193,112.461069,Andrew Warren
850,0.4,0,0,0,0,0,0,0,0,1,0,1,1,0,1,1,-7.960887,112.390315,Leslie Daniels
851,0.775,0,0,0,0,0,0,1,0,0,0,1,1,1,0,1,-6.60761,111.409689,Richard Dickson
852,0.65,0,0,0,0,0,0,1,0,0,0,1,0,1,1,0,-6.14678,111.798213,Ashley Johnson
853,0.8250000000000001,0,1,0,0,0,0,0,0,0,0,1,1,1,0,1,-7.087248,106.916677,Daniel Rubio
854,0.19999999999999996,0,0,0,0,0,0,1,0,0,0,1,1,1,0,1,-8.14115,113.046601,Kayla Eaton
855,0.35,0,0,0,0,0,0,1,0,0,0,1,1,1,1,0,-6.299559,109.24313,Melissa Floyd
856,0.775,0,0,1,0,0,0,0,0,0,1,0,1,0,1,1,-6.043682,109.22474,Bruce Barnes
857,0.975,0,0,0,0,0,0,0,1,0,0,1,0,1,1,0,-7.328914,106.092021,Katherine Collins
858,0.9249999999999999,1,0,0,0,0,0,1,0,0,0,1,0,0,1,1,-7.215852,108.767949,Shannon Frost
859,0.8250000000000001,0,0,1,0,0,0,0,0,0,0,1,1,0,1,1,-7.316243,108.79777,Monica Williams
860,0.17499999999999993,1,0,1,0,0,0,0,0,0,0,1,0,1,0,1,-8.185417,112.69212,Anthony Bell
861,0.7999999999999999,1,0,0,0,0,0,0,0,1,1,1,0,1,0,1,-7.226372,108.263043,Robert Frank
862,0.4999999999999999,1,0,0,1,0,0,0,0,0,0,1,1,1,1,0,-6.95199,106.746552,Shannon Cook
863,0.7999999999999999,1,0,0,0,0,0,1,0,0,1,1,0,1,0,1,-6.338291,108.203478,Louis Chang
864,0.975,1,0,0,1,0,0,0,0,0,0,1,1,0,1,1,-7.973856,106.623337,Amanda Stewart
865,0.4999999999999999,0,0,0,0,0,0,0,0,1,0,1,0,0,1,1,-6.482864,107.408925,Perry Villarreal
866,0.4,0,0,1,0,0,0,0,0,0,1,0,1,1,0,1,-6.759539,111.361966,Michelle Davis
867,0.725,1,1,0,0,0,0,0,0,0,0,1,0,0,1,1,-6.86317,109.655949,Tiffany Carter
868,0.42499999999999993,0,0,0,1,0,0,0,0,0,0,1,0,1,0,1,-6.226985,106.271932,Dr. Eric Hayden MD
869,0.6250000000000001,1,0,1,0,0,0,0,0,0,0,1,0,1,1,0,-7.79115,112.224726,Ryan West
870,0.32499999999999996,1,0,0,0,0,0,0,1,0,0,1,1,1,0,1,-7.115637,106.343543,Daniel Keith
871,0.525,1,0,1,0,0,0,0,0,0,0,1,1,1,0,1,-6.783353,107.225711,Jason Robinson
872,0.4,0,0,0,0,0,0,0,0,1,0,1,0,0,1,1,-6.819112,107.959447,Annette Hill
873,0.525,1,0,0,0,0,0,0,1,0,0,1,0,1,0,1,-7.221407,106.137885,Kristen Barker
874,0.4,1,0,0,0,0,0,1,0,0,1,0,1,1,0,1,-6.298665,106.010563,Gregory Green
875,0.725,1,0,0,0,0,0,1,0,0,0,1,0,1,1,0,-8.099645,112.60851,Kaylee Miller
876,0.65,0,0,1,0,0,0,0,0,0,1,0,1,1,0,1,-6.143043,108.201117,Zachary Curtis
877,0.9,1,0,0,0,0,0,0,0,1,0,1,0,0,1,1,-7.647289,108.922152,Alexander Rogers
878,0.22499999999999998,0,0,0,1,0,0,0,0,0,0,1,0,1,0,1,-6.802143,108.479541,Natalie Sexton
879,0.9500000000000001,1,0,0,0,0,0,1,0,0,0,1,0,1,0,1,-7.999794,113.980789,Jeffrey Morton
880,0.17499999999999993,1,0,0,1,0,0,0,0,0,0,1,1,0,1,1,-7.653204,112.798944,Jane Anderson
881,0.125,1,0,0,0,0,0,0,0,1,1,0,1,1,0,1,-6.036794,109.021338,Kevin Armstrong
882,0.775,0,0,0,0,0,0,1,0,0,0,1,0,1,0,1,-7.81417,109.981432,Jennifer Flores
883,0.975,1,0,1,0,0,0,0,0,0,0,1,0,1,0,1,-6.530112,112.544234,John Lopez
884,0.32499999999999996,0,1,0,0,0,0,0,0,0,0,1,1,0,1,1,-7.571622,108.110513,Nicole Russell
885,0.025000000000000022,1,1,0,0,0,0,0,0,0,0,1,1,1,0,1,-7.1458,107.252942,Victoria Hardy
886,0,1,0,1,0,0,0,0,0,0,0,1,1,0,1,1,-8.189552,107.343715,Dr. Kimberly Schmidt
887,0.7999999999999999,1,0,1,0,0,0,0,0,0,0,1,1,0,1,1,-7.942195,109.378419,Paul Cross
888,0.475,1,0,0,0,0,0,0,1,0,0,1,0,1,1,0,-7.797392,107.520924,John Craig
889,0.7000000000000001,0,0,0,0,0,0,0,1,0,1,1,0,0,1,1,-6.562182,113.689144,Andrew Marks
890,0.7500000000000001,0,0,0,0,0,0,0,0,1,0,1,1,1,0,1,-7.203426,107.321066,Kathy Riggs
891,1,0,0,1,0,0,0,0,0,0,1,0,1,1,0,1,-7.519228,111.753051,Troy Cole
892,0.9,1,1,0,0,0,0,0,0,0,1,0,1,0,1,1,-6.92522,107.015792,Kelly Schroeder
893,0.475,0,0,0,0,0,0,1,0,0,0,1,1,1,1,0,-7.260668,109.339169,Jessica Potts
894,0.975,0,1,0,0,0,0,0,0,0,1,0,1,0,1,1,-6.638102,108.540117,Teresa Allen
895,0.7500000000000001,1,0,0,0,0,0,1,0,0,0,1,0,1,1,0,-8.152993,111.420308,Mark Esparza
896,0.17499999999999993,0,0,0,0,0,0,1,0,0,0,1,0,1,0,1,-6.427445,113.694581,Linda Harris
897,0.9500000000000001,0,0,1,0,0,0,0,0,0,0,1,0,1,0,1,-7.553281,107.580417,Rebecca Edwards
898,0.6749999999999999,0,0,0,1,0,0,0,0,0,0,1,1,1,1,0,-6.015051,110.922053,Spencer Waters
899,0.7000000000000001,0,0,0,1,0,0,0,0,0,0,1,0,1,1,0,-6.642707,111.13333,Kelly Sanford
900,0.025000000000000022,1,0,1,0,0,0,0,0,0,0,1,0,0,1,1,-6.094594,112.255883,Dakota Swanson
901,0.1,1,0,0,0,0,0,0,1,0,0,1,1,1,0,1,-6.269365,110.823535,Karen Turner
902,0.29999999999999993,1,1,0,0,0,0,0,0,0,0,1,1,0,1,1,-6.680621,113.723858,Chad Ramirez
903,0.9,0,1,0,0,0,0,0,0,0,0,1,1,0,1,1,-7.234075,108.146943,Jesus Moran
904,0.4,0,0,0,0,0,0,0,0,1,0,1,1,1,0,1,-6.366481,113.198444,Nicholas Murray
905,0.5499999999999999,0,0,0,0,0,0,0,1,0,0,1,1,1,1,0,-6.441564,106.010056,Jose Walker
906,0.375,1,0,0,0,0,0,1,0,0,0,1,1,0,1,1,-6.122226,107.182916,Marisa Garner
907,0.9,0,0,0,0,0,0,0,0,1,0,1,0,1,0,1,-6.168612,110.398329,Christopher Williams
908,0.17499999999999993,1,1,0,0,0,0,0,0,0,0,1,1,1,0,1,-7.991345,113.758784,Elizabeth Lopez
909,0.9249999999999999,1,0,0,0,0,0,0,1,0,0,1,0,1,1,0,-7.08832,109.793612,Rachel Gill
910,0.6250000000000001,1,0,0,0,0,0,1,0,0,0,1,1,1,1,0,-7.236694,108.720833,Tiffany Gonzalez
911,0.19999999999999996,0,0,0,0,0,0,1,0,0,1,0,1,0,1,1,-6.964172,113.952342,Courtney Torres DVM
912,0.32499999999999996,1,0,0,0,0,0,1,0,0,1,1,0,1,1,0,-6.72104,107.573693,Benjamin Romero
913,0.9,1,1,0,0,0,0,0,0,0,1,0,1,1,1,0,-6.21773,109.05332,Brian Liu
914,0.6749999999999999,0,0,0,0,0,0,0,1,0,0,1,1,0,1,1,-6.59914,106.502405,Michael Moore
915,0.5750000000000001,0,0,1,0,0,0,0,0,0,1,0,1,1,0,1,-6.397405,109.004684,Steven Baker
916,0.7999999999999999,1,0,0,1,0,0,0,0,0,0,1,0,0,1,1,-8.093391,108.462225,Dustin Cruz
917,0.9500000000000001,1,0,0,0,0,0,0,1,0,0,1,1,1,1,0,-8.141196,108.962404,Nicole Franklin
918,0.32499999999999996,1,0,0,0,0,0,0,0,1,0,1,1,1,1,0,-8.11921,113.253508,Craig Garrett
919,0.8250000000000001,0,0,0,0,0,0,1,0,0,1,0,1,1,0,1,-7.36933,111.580786,Daniel Brown
920,0.6,1,0,0,1,0,0,0,0,0,0,1,1,0,1,1,-7.941876,110.810228,Daniel Nelson
921,0.85,1,0,0,0,0,0,0,1,0,0,1,0,1,0,1,-7.339949,113.341731,Kevin Holmes
922,0.5499999999999999,1,0,1,0,0,0,0,0,0,0,1,1,1,1,0,-6.086766,112.573784,Erika Smith
923,0.6749999999999999,1,0,0,0,0,0,0,1,0,1,0,1,1,1,0,-8.147947,111.678225,Megan Lopez
924,0.9249999999999999,1,0,0,1,0,0,0,0,0,0,1,0,0,1,1,-7.460993,109.537415,Michelle Lewis
925,0.85,0,0,0,0,0,0,1,0,0,1,1,0,0,1,1,-7.964101,107.951984,Samuel White
926,0.5499999999999999,1,0,1,0,0,0,0,0,0,1,0,1,1,1,0,-8.000206,113.299915,Jessica Walker
927,0.8250000000000001,0,0,1,0,0,0,0,0,0,0,1,0,1,1,0,-7.967311,107.829155,Jacqueline Smith
928,0.65,0,0,1,0,0,0,0,0,0,1,1,0,0,1,1,-6.771341,112.200629,Christopher Rivera
929,0.15000000000000002,0,1,0,0,0,0,0,0,0,0,1,0,1,0,1,-7.168886,106.948382,Brian Lee
930,0.525,0,0,1,0,0,0,0,0,0,0,1,0,1,1,0,-6.630557,110.524042,Juan Clarke
931,0.6250000000000001,1,0,0,0,0,0,1,0,0,0,1,0,0,1,1,-7.125861,107.471439,Vincent Young
932,0.5750000000000001,0,1,0,0,0,0,0,0,0,0,1,0,0,1,1,-7.685053,111.392925,David Gonzalez
933,0.6250000000000001,1,0,0,0,0,0,0,1,0,0,1,1,1,0,1,-7.329925,108.739664,Andrew Hall
934,0.775,1,0,1,0,0,0,0,0,0,0,1,0,1,0,1,-7.580394,109.171436,William Cunningham
935,0.7500000000000001,1,0,0,1,0,0,0,0,0,0,1,1,1,1,0,-7.058952,109.68255,Tony Thompson
936,0.22499999999999998,0,0,1,0,0,0,0,0,0,1,0,1,1,0,1,-6.73594,107.323233,Kristin Baker
937,0.7000000000000001,0,0,0,0,0,0,0,1,0,0,1,0,1,1,0,-7.855853,106.3783,Nicole Baker
938,0.1,1,0,1,0,0,0,0,0,0,1,0,1,1,1,0,-6.852919,108.288089,Christopher Barron
939,0.375,1,0,1,0,0,0,0,0,0,1,1,0,1,1,0,-7.200912,109.626973,Kevin Smith
940,0.19999999999999996,0,1,0,0,0,0,0,0,0,0,1,1,1,0,1,-7.37023,110.684955,Dr. Marissa Cohen MD
941,0.125,1,0,0,0,0,0,0,1,0,1,0,1,1,0,1,-6.655786,109.174835,Kathleen Price
942,0.15000000000000002,0,0,1,0,0,0,0,0,0,0,1,0,1,1,0,-7.20751,106.46791,Erica Poole
943,0.7500000000000001,1,0,0,0,0,0,0,1,0,0,1,0,0,1,1,-6.473119,109.48934,Patrick Adams
944,0.775,0,0,0,0,0,0,0,1,0,1,1,0,0,1,1,-6.037356,107.045939,Joseph Brown
945,0.525,0,0,0,0,0,0,0,1,0,1,0,1,1,1,0,-6.249053,113.964348,Monique Cordova
946,0.9249999999999999,0,1,0,0,0,0,0,0,0,1,1,0,0,1,1,-6.745631,109.107969,Michael Lewis
947,0.9,1,0,0,1,0,0,0,0,0,0,1,0,1,0,1,-7.033265,113.91785,Michael Alvarez
948,0.32499999999999996,0,0,0,1,0,0,0,0,0,0,1,1,1,1,0,-6.14237,110.71577,Rebecca Mckinney
949,0.125,1,0,0,0,0,0,0,1,0,0,1,0,1,1,0,-8.202619,108.985923,Justin Ortiz
950,0.725,0,0,0,0,0,0,0,0,1,0,1,0,0,1,1,-6.699876,107.555658,Sean Contreras
951,0,0,0,0,0,0,0,0,0,1,0,1,1,1,0,1,-6.248434,105.903667,Tiffany Moore
952,0.125,0,0,0,0,0,0,0,1,0,0,1,1,1,0,1,-6.411656,106.175727,Steve Olson
953,0.35,0,0,0,0,0,0,0,0,1,0,1,1,1,0,1,-6.661534,110.647012,Amy Chase
954,0.975,1,0,0,0,0,0,0,1,0,0,1,0,0,1,1,-6.808328,111.957443,Steven Gilbert
955,0.5750000000000001,0,1,0,0,0,0,0,0,0,0,1,1,1,1,0,-7.83702,110.591656,Christine Lambert
956,0.7000000000000001,1,0,0,0,0,0,0,0,1,0,1,1,0,1,1,-7.171729,111.538728,Megan Martin
957,0.6749999999999999,0,0,0,0,0,0,0,0,1,0,1,0,1,1,0,-7.796006,113.862856,Karen Flynn
958,0.4,0,0,0,0,0,0,1,0,0,1,0,1,0,1,1,-7.385162,108.878469,Jermaine Cummings
959,0.7000000000000001,1,0,0,1,0,0,0,0,0,0,1,1,1,1,0,-6.70413,112.052868,Haley Wilson
960,0.65,1,0,1,0,0,0,0,0,0,0,1,1,1,1,0,-7.840159,110.65207,Bryan Reed
961,0.725,0,0,0,0,0,0,0,1,0,0,1,1,1,1,0,-6.762851,111.846189,Danny Smith
962,0.075,1,1,0,0,0,0,0,0,0,1,0,1,1,0,1,-7.58759,107.035802,Karen Faulkner
963,0.375,0,0,0,0,0,0,0,0,1,0,1,0,1,0,1,-6.453306,113.680811,Ashley Estrada
964,0.85,0,1,0,0,0,0,0,0,0,0,1,0,0,1,1,-8.020032,111.833345,Julian Poole
965,0.6749999999999999,1,0,0,0,0,0,1,0,0,0,1,1,1,0,1,-6.325328,109.179427,Michael Petersen
966,0.6250000000000001,0,0,0,0,0,0,0,0,1,0,1,1,1,1,0,-6.922101,112.392382,Danielle Adams
967,0.4999999999999999,1,0,0,0,0,0,1,0,0,0,1,0,1,1,0,-7.578723,110.43331,Chelsea Schmidt DVM
968,0.42499999999999993,0,0,0,1,0,0,0,0,0,0,1,1,0,1,1,-6.133646,111.149076,Eric Vargas
969,0.5750000000000001,1,0,0,0,0,0,0,1,0,1,0,1,1,1,0,-7.535897,112.087304,James Johnson
970,0.65,1,0,0,0,0,0,0,0,1,0,1,1,0,1,1,-6.031698,110.320086,Jon Rivers
971,0.7500000000000001,1,0,0,0,0,0,0,0,1,0,1,0,0,1,1,-7.150865,107.758758,Courtney Hale
972,0,0,1,0,0,0,0,0,0,0,0,1,0,1,1,0,-6.668515,107.773274,Paul Rodriguez
973,0.9249999999999999,0,0,0,0,0,0,0,0,1,0,1,0,1,0,1,-6.127925,106.515268,Rodney Clarke
974,0.975,0,0,0,0,0,0,0,1,0,0,1,1,1,0,1,-7.634756,112.04961,Joseph Reyes
975,0.32499999999999996,0,1,0,0,0,0,0,0,0,0,1,0,0,1,1,-7.450516,108.065837,Michael Baker
976,0.65,1,0,1,0,0,0,0,0,0,0,1,0,1,1,0,-7.684962,110.090759,Christopher Fox
977,0.5750000000000001,0,0,1,0,0,0,0,0,0,0,1,0,1,1,0,-7.359434,108.53698,Jay Cobb
978,0.525,0,0,1,0,0,0,0,0,0,0,1,0,0,1,1,-6.661004,108.714227,Michael Chan
979,0.42499999999999993,0,0,0,1,0,0,0,0,0,0,1,1,0,1,1,-7.922494,109.163446,Larry Ball
980,0.05,0,0,0,1,0,0,0,0,0,0,1,0,1,0,1,-6.831623,112.145957,Jason Bernard
981,0.4,1,1,0,0,0,0,0,0,0,0,1,1,0,1,1,-6.988841,112.439971,Maxwell Morgan
982,0.25,0,0,0,0,0,0,0,1,0,0,1,0,1,1,0,-6.621221,110.095024,Justin White
983,0.05,0,0,0,1,0,0,0,0,0,0,1,1,0,1,1,-7.003316,110.753297,Heather Cook
984,0.975,0,0,0,0,0,0,0,0,1,0,1,0,0,1,1,-6.57665,113.55084,Michael Luna
985,0.025000000000000022,1,1,0,0,0,0,0,0,0,0,1,1,1,1,0,-6.250851,107.486467,Donna Noble
986,0.17499999999999993,0,0,1,0,0,0,0,0,0,0,1,1,0,1,1,-7.36539,106.608812,Jennifer Johnson
987,0.45000000000000007,1,0,0,0,0,0,1,0,0,0,1,0,0,1,1,-8.158109,105.922247,Larry Levy
988,0.32499999999999996,0,0,0,0,0,0,0,0,1,0,1,1,1,1,0,-8.083627,112.794358,Brandon Martin
989,0.25,0,0,0,0,0,0,0,0,1,0,1,0,1,1,0,-8.222872,112.03438,Mrs. Courtney Pugh
990,0.275,1,0,0,0,0,0,0,0,1,0,1,0,1,0,1,-6.985878,107.558312,Michael Daniel
991,0.4,1,0,0,0,0,0,0,0,1,1,1,0,1,1,0,-6.162359,108.163369,Sarah Morris
992,0.725,0,0,0,1,0,0,0,0,0,0,1,0,1,0,1,-7.861498,112.74942,William Holt
993,0.22499999999999998,0,0,0,1,0,0,0,0,0,0,1,0,1,1,0,-6.051961,107.027443,Kelly Turner
994,0.725,1,1,0,0,0,0,0,0,0,1,1,0,1,1,0,-7.60093,110.662494,Lisa Taylor
995,0.4999999999999999,0,0,0,0,0,0,0,0,1,1,1,0,0,1,1,-7.099359,110.389851,Mary Willis
996,0.9249999999999999,1,0,0,0,0,0,1,0,0,0,1,0,1,1,0,-7.766515,112.709219,Stephanie King
997,0.35,0,1,0,0,0,0,0,0,0,0,1,0,1,1,0,-7.802827,111.125009,Jennifer Jones
998,0.9,1,0,0,0,0,0,1,0,0,0,1,1,1,1,0,-7.820755,107.910745,Susan Paul
999,0.4,1,0,1,0,0,0,0,0,0,0,1,1,1,1,0,-7.74931,111.537378,Colleen Carpenter
